city,lineid,linename,rank,name,village,longitude,latitude,time,memo,garbagesunday,garbagemonday,garbagetuesday,garbagewednesday,garbagethursday,garbagefriday,garbagesaturday,recyclingsunday,recyclingmonday,recyclingtuesday,recyclingwednesday,recyclingthursday,recyclingfriday,recyclingsaturday,foodscrapssunday,foodscrapsmonday,foodscrapstuesday,foodscrapswednesday,foodscrapsthursday,foodscrapsfriday,foodscrapssaturday
萬里區,207001,A路線下午,1,獅頭路15-1號(海巡),萬里里,121.6945286,25.17950406,12:40,,,Y,Y,,Y,Y,Y,,Y,,,Y,,,,Y,Y,,Y,Y,Y
萬里區,207001,A路線下午,2,瑪鋉下街60-2號(海水浴場),萬里里,121.691376,25.179964,12:45,,,Y,Y,,Y,Y,Y,,Y,,,Y,,,,Y,Y,,Y,Y,Y
萬里區,207001,A路線下午,3,瑪鋉路216號(托兒所),萬里里,121.689041,25.180643,12:48,,,Y,Y,,Y,Y,Y,,Y,,,Y,,,,Y,Y,,Y,Y,Y
萬里區,207001,A路線下午,4,瑪鋉路123號(區公所),萬里里,121.689713,25.17794,13:13,,,Y,Y,,Y,Y,Y,,Y,,,Y,,,,Y,Y,,Y,Y,Y
萬里區,207001,A路線下午,5,玉田路43-13號,龜吼里,121.68129,25.188593,13:18,,,Y,Y,,Y,Y,Y,,Y,,,Y,,,,Y,Y,,Y,Y,Y
萬里區,207001,A路線下午,6,海景路42號,龜吼里,121.679815,25.190149,13:20,,,Y,Y,,Y,Y,Y,,Y,,,Y,,,,Y,Y,,Y,Y,Y
萬里區,207001,A路線下午,7,玉田路79號,龜吼里,121.680405,25.192995,13:23,,,Y,Y,,Y,Y,Y,,Y,,,Y,,,,Y,Y,,Y,Y,Y
萬里區,207001,A路線下午,8,公館崙18號,磺潭里,121.6422776,25.21203606,13:45,,,Y,Y,,Y,Y,Y,,Y,,,Y,,,,Y,Y,,Y,Y,Y
萬里區,207001,A路線下午,9,公館崙35-3號(三叉路),磺潭里,121.6411206,25.212997,13:49,,,Y,Y,,Y,Y,Y,,Y,,,Y,,,,Y,Y,,Y,Y,Y
萬里區,207001,A路線下午,10,公館崙25號(土地公),磺潭里,121.6394274,25.21371775,13:51,,,Y,Y,,Y,Y,Y,,Y,,,Y,,,,Y,Y,,Y,Y,Y
萬里區,207001,A路線下午,11,公館崙21-2號,磺潭里,121.6375554,25.21397706,13:53,,,Y,Y,,Y,Y,Y,,Y,,,Y,,,,Y,Y,,Y,Y,Y
萬里區,207001,A路線下午,12,磺溪1號(水塔),磺潭里,121.629898,25.207585,13:55,,,Y,Y,,Y,Y,Y,,Y,,,Y,,,,Y,Y,,Y,Y,Y
萬里區,207001,A路線下午,13,公館崙49號,磺潭里,121.628983,25.206506,13:57,,,Y,Y,,Y,Y,Y,,Y,,,Y,,,,Y,Y,,Y,Y,Y
萬里區,207001,A路線下午,14,公館崙56號,磺潭里,121.6285761,25.20511141,13:58,,,Y,Y,,Y,Y,Y,,Y,,,Y,,,,Y,Y,,Y,Y,Y
萬里區,207001,A路線下午,15,磺溪12號(玉聖宮),磺潭里,121.631297,25.203254,14:00,,,Y,Y,,Y,Y,Y,,Y,,,Y,,,,Y,Y,,Y,Y,Y
萬里區,207001,A路線下午,16,清水路18號(濟公廟),磺潭里,121.637842,25.198136,14:02,,,Y,Y,,Y,Y,Y,,Y,,,Y,,,,Y,Y,,Y,Y,Y
萬里區,207001,A路線下午,17,清水路8號,磺潭里,121.645424,25.200806,14:30,,,Y,Y,,Y,Y,Y,,Y,,,Y,,,,Y,Y,,Y,Y,Y
萬里區,207001,A路線下午,18,員潭路3號,磺潭里,121.646332,25.200287,14:32,,,Y,Y,,Y,Y,Y,,Y,,,Y,,,,Y,Y,,Y,Y,Y
萬里區,207001,A路線下午,19,員潭路10號,磺潭里,121.646645,25.199291,14:34,,,Y,Y,,Y,Y,Y,,Y,,,Y,,,,Y,Y,,Y,Y,Y
萬里區,207001,A路線下午,20,員潭路16號,磺潭里,121.646652,25.198009,14:36,,,Y,Y,,Y,Y,Y,,Y,,,Y,,,,Y,Y,,Y,Y,Y
萬里區,207001,A路線下午,21,員潭路32-1號,磺潭里,121.644508,25.195408,14:38,,,Y,Y,,Y,Y,Y,,Y,,,Y,,,,Y,Y,,Y,Y,Y
萬里區,207001,A路線下午,22,達天路4-2號,雙興里,121.642918,25.190072,14:40,,,Y,Y,,Y,Y,Y,,Y,,,Y,,,,Y,Y,,Y,Y,Y
萬里區,207001,A路線下午,23,豐廩路26號,雙興里,121.641076,25.188538,14:43,,,Y,Y,,Y,Y,Y,,Y,,,Y,,,,Y,Y,,Y,Y,Y
萬里區,207001,A路線下午,24,達天路19-1號,雙興里,121.642183,25.182214,14:46,,,Y,Y,,Y,Y,Y,,Y,,,Y,,,,Y,Y,,Y,Y,Y
萬里區,207001,A路線下午,25,豐廩路32-1號(擋土牆),雙興里,121.642967,25.181332,14:49,,,Y,Y,,Y,Y,Y,,Y,,,Y,,,,Y,Y,,Y,Y,Y
萬里區,207001,A路線下午,26,豐廩路32-2號,雙興里,121.645966,25.180185,14:52,,,Y,Y,,Y,Y,Y,,Y,,,Y,,,,Y,Y,,Y,Y,Y
萬里區,207001,A路線下午,27,二坪路1-3號(百香果園),雙興里,121.649811,25.17732,14:54,,,Y,Y,,Y,Y,Y,,Y,,,Y,,,,Y,Y,,Y,Y,Y
萬里區,207001,A路線下午,28,二坪路9號,雙興里,121.653092,25.175059,14:56,,,Y,Y,,Y,Y,Y,,Y,,,Y,,,,Y,Y,,Y,Y,Y
萬里區,207001,A路線下午,29,太和路27-2號,雙興里,121.654915,25.17568,15:00,,,Y,Y,,Y,Y,Y,,Y,,,Y,,,,Y,Y,,Y,Y,Y
萬里區,207001,A路線下午,30,麗水路2-1號,雙興里,121.653885,25.179476,15:03,,,Y,Y,,Y,Y,Y,,Y,,,Y,,,,Y,Y,,Y,Y,Y
萬里區,207001,A路線下午,31,豐廩路6-3號,雙興里,121.650623,25.186068,15:06,,,Y,Y,,Y,Y,Y,,Y,,,Y,,,,Y,Y,,Y,Y,Y
萬里區,207001,A路線下午,32,麗水路8-1號,雙興里,121.649404,25.187795,15:10,,,Y,Y,,Y,Y,Y,,Y,,,Y,,,,Y,Y,,Y,Y,Y
萬里區,207001,A路線下午,33,員潭路48-1號,磺潭里,121.645325,25.193243,15:12,,,Y,Y,,Y,Y,Y,,Y,,,Y,,,,Y,Y,,Y,Y,Y
萬里區,207001,A路線下午,34,員潭路1-6號(土地公廟),磺潭里,121.646786,25.202728,15:15,,,Y,Y,,Y,Y,Y,,Y,,,Y,,,,Y,Y,,Y,Y,Y
萬里區,207001,A路線下午,35,加投路10號(大鵬國小後面),大鵬里,121.6517752,25.20851787,15:27,,,Y,Y,,Y,Y,Y,,Y,,,Y,,,,Y,Y,,Y,Y,Y
萬里區,207001,A路線下午,36,玉田路2號(鎮北宮路口),龜吼里,121.6806596,25.18423317,15:32,,,Y,Y,,Y,Y,Y,,Y,,,Y,,,,Y,Y,,Y,Y,Y
萬里區,207002,B路線下午,1,太湖6-5號,雙興里,121.6593496,25.17067769,12:40,,,Y,Y,,Y,Y,Y,,Y,,,Y,,,,Y,Y,,Y,Y,Y
萬里區,207002,B路線下午,2,太和7-3號(四面佛),雙興里,121.6578793,25.17433526,12:43,,,Y,Y,,Y,Y,Y,,Y,,,Y,,,,Y,Y,,Y,Y,Y
萬里區,207002,B路線下午,3,太和28號,雙興里,121.652616,25.17580074,12:45,,,Y,Y,,Y,Y,Y,,Y,,,Y,,,,Y,Y,,Y,Y,Y
萬里區,207002,B路線下午,4,二坪6-2號(天祥寶塔),雙興里,121.650696,25.175373,12:47,,,Y,Y,,Y,Y,Y,,Y,,,Y,,,,Y,Y,,Y,Y,Y
萬里區,207002,B路線下午,5,二坪37號(車站牌),雙興里,121.641579,25.166664,12:53,,,Y,Y,,Y,Y,Y,,Y,,,Y,,,,Y,Y,,Y,Y,Y
萬里區,207002,B路線下午,6,大坪路1號(大坪國小),雙興里,121.638321,25.167484,12:55,,,Y,Y,,Y,Y,Y,,Y,,,Y,,,,Y,Y,,Y,Y,Y
萬里區,207002,B路線下午,7,大坪路50號(涼心公園),雙興里,121.6312137,25.16876676,13:00,,,Y,Y,,Y,Y,Y,,Y,,,Y,,,,Y,Y,,Y,Y,Y
萬里區,207002,B路線下午,8,大坪路42號,雙興里,121.6285762,25.16938638,13:03,,,Y,Y,,Y,Y,Y,,Y,,,Y,,,,Y,Y,,Y,Y,Y
萬里區,207002,B路線下午,9,大坪路39號(鹿崛坪),雙興里,121.6267338,25.1714176,13:05,,,Y,Y,,Y,Y,Y,,Y,,,Y,,,,Y,Y,,Y,Y,Y
萬里區,207002,B路線下午,10,香員林6號路口,溪底里,121.6326511,25.16468242,13:08,,,Y,Y,,Y,Y,Y,,Y,,,Y,,,,Y,Y,,Y,Y,Y
萬里區,207002,B路線下午,11,香員林17號,溪底里,121.636063,25.160976,13:10,,,Y,Y,,Y,Y,Y,,Y,,,Y,,,,Y,Y,,Y,Y,Y
萬里區,207002,B路線下午,12,內崁2-1號,溪底里,121.640427,25.159794,13:12,,,Y,Y,,Y,Y,Y,,Y,,,Y,,,,Y,Y,,Y,Y,Y
萬里區,207002,B路線下午,13,內崁10號,溪底里,121.641068,25.159575,13:14,,,Y,Y,,Y,Y,Y,,Y,,,Y,,,,Y,Y,,Y,Y,Y
萬里區,207002,B路線下午,14,崁腳62號,崁腳里,121.648636,25.159731,13:18,,,Y,Y,,Y,Y,Y,,Y,,,Y,,,,Y,Y,,Y,Y,Y
萬里區,207002,B路線下午,15,崁腳173號,崁腳里,121.644989,25.154715,13:52,,,Y,Y,,Y,Y,Y,,Y,,,Y,,,,Y,Y,,Y,Y,Y
萬里區,207002,B路線下午,16,烏塗炭2-1號,溪底里,121.63752,25.153622,13:56,,,Y,Y,,Y,Y,Y,,Y,,,Y,,,,Y,Y,,Y,Y,Y
萬里區,207002,B路線下午,17,烏塗炭10號,溪底里,121.632538,25.15056,14:00,,,Y,Y,,Y,Y,Y,,Y,,,Y,,,,Y,Y,,Y,Y,Y
萬里區,207002,B路線下午,18,烏塗炭21號路口,溪底里,121.627617,25.148979,14:02,,,Y,Y,,Y,Y,Y,,Y,,,Y,,,,Y,Y,,Y,Y,Y
萬里區,207002,B路線下午,19,溪底8號口,溪底里,121.621223,25.148592,14:06,,,Y,Y,,Y,Y,Y,,Y,,,Y,,,,Y,Y,,Y,Y,Y
萬里區,207002,B路線下午,20,瑞泉21號,溪底里,121.603718,25.144993,14:10,,,Y,Y,,Y,Y,Y,,Y,,,Y,,,,Y,Y,,Y,Y,Y
萬里區,207002,B路線下午,21,溪底9號路口(風櫃嘴),溪底里,121.6042193,25.1390396,14:14,,,Y,Y,,Y,Y,Y,,Y,,,Y,,,,Y,Y,,Y,Y,Y
萬里區,207002,B路線下午,22,瑞泉4號(慈惠堂),溪底里,121.6091,25.146208,14:19,,,Y,Y,,Y,Y,Y,,Y,,,Y,,,,Y,Y,,Y,Y,Y
萬里區,207002,B路線下午,23,溪底23號路口,溪底里,121.610374,25.148123,14:23,,,Y,Y,,Y,Y,Y,,Y,,,Y,,,,Y,Y,,Y,Y,Y
萬里區,207002,B路線下午,24,溪底6-2號(新興宮),溪底里,121.616577,25.150934,14:24,,,Y,Y,,Y,Y,Y,,Y,,,Y,,,,Y,Y,,Y,Y,Y
萬里區,207002,B路線下午,25,富士坪2-1號路口,溪底里,121.6224269,25.15450057,14:26,,,Y,Y,,Y,Y,Y,,Y,,,Y,,,,Y,Y,,Y,Y,Y
萬里區,207002,B路線下午,26,富士坪7號路口(溪底分校),溪底里,121.6236297,25.156078,14:28,,,Y,Y,,Y,Y,Y,,Y,,,Y,,,,Y,Y,,Y,Y,Y
萬里區,207002,B路線下午,27,崁腳8號,崁腳里,121.6472698,25.16179359,15:07,,,Y,Y,,Y,Y,Y,,Y,,,Y,,,,Y,Y,,Y,Y,Y
萬里區,207002,B路線下午,28,崁腳59號(崁腳國小),崁腳里,121.649483,25.160294,15:11,,,Y,Y,,Y,Y,Y,,Y,,,Y,,,,Y,Y,,Y,Y,Y
萬里區,207002,B路線下午,29,崁腳55-1號(崁腳活動中心),崁腳里,121.649719,25.160086,15:13,,,Y,Y,,Y,Y,Y,,Y,,,Y,,,,Y,Y,,Y,Y,Y
萬里區,207002,B路線下午,30,崁腳24號,崁腳里,121.651489,25.160454,15:14,,,Y,Y,,Y,Y,Y,,Y,,,Y,,,,Y,Y,,Y,Y,Y
萬里區,207002,B路線下午,31,內中幅96號,崁腳里,121.654167,25.164717,15:15,,,Y,Y,,Y,Y,Y,,Y,,,Y,,,,Y,Y,,Y,Y,Y
萬里區,207002,B路線下午,32,內中幅72號(天護宮),崁腳里,121.655983,25.167534,15:17,,,Y,Y,,Y,Y,Y,,Y,,,Y,,,,Y,Y,,Y,Y,Y
萬里區,207002,B路線下午,33,內中幅9號之1路口,崁腳里,121.6650942,25.16470316,15:19,,,Y,Y,,Y,Y,Y,,Y,,,Y,,,,Y,Y,,Y,Y,Y
萬里區,207002,B路線下午,34,內中幅3-1號,崁腳里,121.6628793,25.16539326,15:21,,,Y,Y,,Y,Y,Y,,Y,,,Y,,,,Y,Y,,Y,Y,Y
萬里區,207002,B路線下午,35,內中幅路24號(酒莊),崁腳里,121.6684704,25.16527068,15:23,,,Y,Y,,Y,Y,Y,,Y,,,Y,,,,Y,Y,,Y,Y,Y
萬里區,207002,B路線下午,36,內中幅路22號(大樹下),崁腳里,121.6692846,25.16547398,15:25,,,Y,Y,,Y,Y,Y,,Y,,,Y,,,,Y,Y,,Y,Y,Y
萬里區,207003,C路線晚上,1,美崙路40號(便利商店),龜吼里,121.686386,25.184601,17:28,,,Y,Y,,Y,Y,Y,,Y,Y,,Y,Y,Y,,Y,Y,,Y,Y,Y
萬里區,207003,C路線晚上,2,美崙路91號,龜吼里,121.685532,25.184975,17:29,,,Y,Y,,Y,Y,Y,,Y,Y,,Y,Y,Y,,Y,Y,,Y,Y,Y
萬里區,207003,C路線晚上,3,古亭3號路口(保安宮),龜吼里,121.683151,25.189337,17:30,,,Y,Y,,Y,Y,Y,,Y,Y,,Y,Y,Y,,Y,Y,,Y,Y,Y
萬里區,207003,C路線晚上,4,石角路18號,龜吼里,121.684097,25.191641,17:35,,,Y,Y,,Y,Y,Y,,Y,Y,,Y,Y,Y,,Y,Y,,Y,Y,Y
萬里區,207003,C路線晚上,5,石角路21號,龜吼里,121.684158,25.191725,17:36,,,Y,Y,,Y,Y,Y,,Y,Y,,Y,Y,Y,,Y,Y,,Y,Y,Y
萬里區,207003,C路線晚上,6,漁澳路2號(餐廳),龜吼里,121.686371,25.194204,17:37,,,Y,Y,,Y,Y,Y,,Y,Y,,Y,Y,Y,,Y,Y,,Y,Y,Y
萬里區,207003,C路線晚上,7,漁澳路11號(大樹下),龜吼里,121.686653,25.194597,17:39,,,Y,Y,,Y,Y,Y,,Y,Y,,Y,Y,Y,,Y,Y,,Y,Y,Y
萬里區,207003,C路線晚上,8,漁澳路16-2號,龜吼里,121.686874,25.194946,17:41,,,Y,Y,,Y,Y,Y,,Y,Y,,Y,Y,Y,,Y,Y,,Y,Y,Y
萬里區,207003,C路線晚上,9,漁澳路63號,龜吼里,121.687248,25.19536,17:43,,,Y,Y,,Y,Y,Y,,Y,Y,,Y,Y,Y,,Y,Y,,Y,Y,Y
萬里區,207003,C路線晚上,10,漁澳路79-3號,龜吼里,121.687,25.196,17:44,,,Y,Y,,Y,Y,Y,,Y,Y,,Y,Y,Y,,Y,Y,,Y,Y,Y
萬里區,207003,C路線晚上,11,漁澳路26號,龜吼里,121.68615,25.195,17:45,,,Y,Y,,Y,Y,Y,,Y,Y,,Y,Y,Y,,Y,Y,,Y,Y,Y
萬里區,207003,C路線晚上,12,漁澳路5-1號(順天宮),龜吼里,121.686302,25.194355,17:47,,,Y,Y,,Y,Y,Y,,Y,Y,,Y,Y,Y,,Y,Y,,Y,Y,Y
萬里區,207003,C路線晚上,13,東澳新村53號(餐廳),野柳里,121.692024,25.203178,18:05,,,Y,Y,,Y,Y,Y,,Y,Y,,Y,Y,Y,,Y,Y,,Y,Y,Y
萬里區,207003,C路線晚上,14,東澳路9號(朝天宮廟口),野柳里,121.6912393,25.20383521,18:07,,,Y,Y,,Y,Y,Y,,Y,Y,,Y,Y,Y,,Y,Y,,Y,Y,Y
萬里區,207003,C路線晚上,15,港東路167-3號(攤販街口),野柳里,121.690346,25.204252,18:10,,,Y,Y,,Y,Y,Y,,Y,Y,,Y,Y,Y,,Y,Y,,Y,Y,Y
萬里區,207003,C路線晚上,16,港東路167(野柳國小),野柳里,121.689827,25.205151,18:11,,,Y,Y,,Y,Y,Y,,Y,Y,,Y,Y,Y,,Y,Y,,Y,Y,Y
萬里區,207003,C路線晚上,17,港西路56號(車站),野柳里,121.685188,25.203426,18:15,,,Y,Y,,Y,Y,Y,,Y,Y,,Y,Y,Y,,Y,Y,,Y,Y,Y
萬里區,207003,C路線晚上,18,港西路78-4號(釣具行),野柳里,121.686005,25.205994,18:19,,,Y,Y,,Y,Y,Y,,Y,Y,,Y,Y,Y,,Y,Y,,Y,Y,Y
萬里區,207003,C路線晚上,19,港西路73號(漁具行),野柳里,121.685883,25.204878,18:21,,,Y,Y,,Y,Y,Y,,Y,Y,,Y,Y,Y,,Y,Y,,Y,Y,Y
萬里區,207003,C路線晚上,20,港西路59號(商店旁),野柳里,121.685623,25.203775,18:23,,,Y,Y,,Y,Y,Y,,Y,Y,,Y,Y,Y,,Y,Y,,Y,Y,Y
萬里區,207003,C路線晚上,21,港東新村1-2號,野柳里,121.68541,25.203114,18:25,,,Y,Y,,Y,Y,Y,,Y,Y,,Y,Y,Y,,Y,Y,,Y,Y,Y
萬里區,207003,C路線晚上,22,港東路6號(農會旁),野柳里,121.686325,25.203072,18:28,,,Y,Y,,Y,Y,Y,,Y,Y,,Y,Y,Y,,Y,Y,,Y,Y,Y
萬里區,207003,C路線晚上,23,港東路61-1號(早餐店巷口),野柳里,121.687469,25.203667,18:32,,,Y,Y,,Y,Y,Y,,Y,Y,,Y,Y,Y,,Y,Y,,Y,Y,Y
萬里區,207003,C路線晚上,24,港東路88-3號,野柳里,121.68782,25.203844,18:34,,,Y,Y,,Y,Y,Y,,Y,Y,,Y,Y,Y,,Y,Y,,Y,Y,Y
萬里區,207003,C路線晚上,25,港東路112號(診所對面),野柳里,121.688553,25.203873,18:36,,,Y,Y,,Y,Y,Y,,Y,Y,,Y,Y,Y,,Y,Y,,Y,Y,Y
萬里區,207003,C路線晚上,26,港東路347號,野柳里,121.689323,25.203926,18:39,,,Y,Y,,Y,Y,Y,,Y,Y,,Y,Y,Y,,Y,Y,,Y,Y,Y
萬里區,207003,C路線晚上,27,港東路70號,野柳里,121.68811,25.204901,18:41,,,Y,Y,,Y,Y,Y,,Y,Y,,Y,Y,Y,,Y,Y,,Y,Y,Y
萬里區,207003,C路線晚上,28,港東路74號(吉順香舖),野柳里,121.688194,25.204958,18:43,,,Y,Y,,Y,Y,Y,,Y,Y,,Y,Y,Y,,Y,Y,,Y,Y,Y
萬里區,207003,C路線晚上,29,港東路154號,野柳里,121.689514,25.205046,18:45,,,Y,Y,,Y,Y,Y,,Y,Y,,Y,Y,Y,,Y,Y,,Y,Y,Y
萬里區,207003,C路線晚上,30,頂社1號(便利商店),大鵬里,121.657181,25.209717,19:00,,,Y,Y,,Y,Y,Y,,Y,Y,,Y,Y,Y,,Y,Y,,Y,Y,Y
萬里區,207003,C路線晚上,31,頂社14號,大鵬里,121.655952,25.209558,19:02,,,Y,Y,,Y,Y,Y,,Y,Y,,Y,Y,Y,,Y,Y,,Y,Y,Y
萬里區,207003,C路線晚上,32,頂社49-6號,大鵬里,121.655174,25.211052,19:03,,,Y,Y,,Y,Y,Y,,Y,Y,,Y,Y,Y,,Y,Y,,Y,Y,Y
萬里區,207003,C路線晚上,33,頂社43-1號,大鵬里,121.655922,25.211567,19:05,,,Y,Y,,Y,Y,Y,,Y,Y,,Y,Y,Y,,Y,Y,,Y,Y,Y
萬里區,207003,C路線晚上,34,頂社30號,大鵬里,121.656548,25.210802,19:07,,,Y,Y,,Y,Y,Y,,Y,Y,,Y,Y,Y,,Y,Y,,Y,Y,Y
萬里區,207003,C路線晚上,35,頂社71-1號,大鵬里,121.654968,25.209208,19:10,,,Y,Y,,Y,Y,Y,,Y,Y,,Y,Y,Y,,Y,Y,,Y,Y,Y
萬里區,207003,C路線晚上,36,加投路18號,大鵬里,121.649178,25.211416,19:13,,,Y,Y,,Y,Y,Y,,Y,Y,,Y,Y,Y,,Y,Y,,Y,Y,Y
萬里區,207003,C路線晚上,37,加投路78-1號,大鵬里,121.646004,25.211309,19:15,,,Y,Y,,Y,Y,Y,,Y,Y,,Y,Y,Y,,Y,Y,,Y,Y,Y
萬里區,207003,C路線晚上,38,加投路32-3號,大鵬里,121.646545,25.210279,19:16,,,Y,Y,,Y,Y,Y,,Y,Y,,Y,Y,Y,,Y,Y,,Y,Y,Y
萬里區,207003,C路線晚上,39,加投路32號路口,大鵬里,121.646675,25.209421,19:17,,,Y,Y,,Y,Y,Y,,Y,Y,,Y,Y,Y,,Y,Y,,Y,Y,Y
萬里區,207003,C路線晚上,40,加投路29-3號,大鵬里,121.646777,25.208713,19:18,,,Y,Y,,Y,Y,Y,,Y,Y,,Y,Y,Y,,Y,Y,,Y,Y,Y
萬里區,207003,C路線晚上,41,加投路28-1號,大鵬里,121.646978,25.208131,19:20,,,Y,Y,,Y,Y,Y,,Y,Y,,Y,Y,Y,,Y,Y,,Y,Y,Y
萬里區,207003,C路線晚上,42,加投路24-2號,大鵬里,121.647127,25.207702,19:22,,,Y,Y,,Y,Y,Y,,Y,Y,,Y,Y,Y,,Y,Y,,Y,Y,Y
萬里區,207003,C路線晚上,43,加投路95號,大鵬里,121.6461766,25.21283028,19:25,,,Y,Y,,Y,Y,Y,,Y,Y,,Y,Y,Y,,Y,Y,,Y,Y,Y
萬里區,207003,C路線晚上,44,加投路101-1號,大鵬里,121.645389,25.213479,19:28,,,Y,Y,,Y,Y,Y,,Y,Y,,Y,Y,Y,,Y,Y,,Y,Y,Y
萬里區,207003,C路線晚上,45,加投路153-1號(活動中心),大鵬里,121.644964,25.214098,19:30,,,Y,Y,,Y,Y,Y,,Y,Y,,Y,Y,Y,,Y,Y,,Y,Y,Y
萬里區,207003,C路線晚上,46,加投路197-8號,大鵬里,121.644479,25.214558,19:33,,,Y,Y,,Y,Y,Y,,Y,Y,,Y,Y,Y,,Y,Y,,Y,Y,Y
萬里區,207003,C路線晚上,47,加投路254號,大鵬里,121.644143,25.215285,19:34,,,Y,Y,,Y,Y,Y,,Y,Y,,Y,Y,Y,,Y,Y,,Y,Y,Y
萬里區,207003,C路線晚上,48,加投路284號,大鵬里,121.644512,25.215791,19:36,,,Y,Y,,Y,Y,Y,,Y,Y,,Y,Y,Y,,Y,Y,,Y,Y,Y
萬里區,207003,C路線晚上,49,加投路287-3號,大鵬里,121.645497,25.217445,19:38,,,Y,Y,,Y,Y,Y,,Y,Y,,Y,Y,Y,,Y,Y,,Y,Y,Y
萬里區,207003,C路線晚上,50,加投路243-3號,大鵬里,121.645485,25.219265,19:41,,,Y,Y,,Y,Y,Y,,Y,Y,,Y,Y,Y,,Y,Y,,Y,Y,Y
萬里區,207003,C路線晚上,51,加投路205-5號,大鵬里,121.645552,25.22071,19:43,,,Y,Y,,Y,Y,Y,,Y,Y,,Y,Y,Y,,Y,Y,,Y,Y,Y
萬里區,207003,C路線晚上,52,下社路10號,大鵬里,121.646292,25.221162,19:45,,,Y,Y,,Y,Y,Y,,Y,Y,,Y,Y,Y,,Y,Y,,Y,Y,Y
萬里區,207003,C路線晚上,53,下社路3-3號(電台),大鵬里,121.647213,25.21971,19:47,,,Y,Y,,Y,Y,Y,,Y,Y,,Y,Y,Y,,Y,Y,,Y,Y,Y
萬里區,207003,C路線晚上,54,下社路33-3號,大鵬里,121.648708,25.217335,19:49,,,Y,Y,,Y,Y,Y,,Y,Y,,Y,Y,Y,,Y,Y,,Y,Y,Y
萬里區,207003,C路線晚上,55,下社路15-6號,大鵬里,121.648376,25.215731,19:51,,,Y,Y,,Y,Y,Y,,Y,Y,,Y,Y,Y,,Y,Y,,Y,Y,Y
萬里區,207003,C路線晚上,56,加投路300號,大鵬里,121.646796,25.21709,19:53,,,Y,Y,,Y,Y,Y,,Y,Y,,Y,Y,Y,,Y,Y,,Y,Y,Y
萬里區,207003,C路線晚上,57,加投路68-7號,大鵬里,121.642854,25.215658,19:55,,,Y,Y,,Y,Y,Y,,Y,Y,,Y,Y,Y,,Y,Y,,Y,Y,Y
萬里區,207003,C路線晚上,58,加投路60號,大鵬里,121.642241,25.214647,19:57,,,Y,Y,,Y,Y,Y,,Y,Y,,Y,Y,Y,,Y,Y,,Y,Y,Y
萬里區,207003,C路線晚上,59,加投路45-1號(水田園),大鵬里,121.642408,25.212959,19:59,,,Y,Y,,Y,Y,Y,,Y,Y,,Y,Y,Y,,Y,Y,,Y,Y,Y
萬里區,207003,C路線晚上,60,加投路41-2號,大鵬里,121.640761,25.209642,20:01,,,Y,Y,,Y,Y,Y,,Y,Y,,Y,Y,Y,,Y,Y,,Y,Y,Y
萬里區,207003,C路線晚上,61,加投路63-5號,大鵬里,121.643544,25.215343,20:04,,,Y,Y,,Y,Y,Y,,Y,Y,,Y,Y,Y,,Y,Y,,Y,Y,Y
萬里區,207003,C路線晚上,62,加投路166號,大鵬里,121.643787,25.215049,20:08,,,Y,Y,,Y,Y,Y,,Y,Y,,Y,Y,Y,,Y,Y,,Y,Y,Y
萬里區,207003,C路線晚上,63,加投路190號,大鵬里,121.643992,25.214858,20:09,,,Y,Y,,Y,Y,Y,,Y,Y,,Y,Y,Y,,Y,Y,,Y,Y,Y
萬里區,207003,C路線晚上,64,加投路132-1號,大鵬里,121.6443752,25.21447297,20:11,,,Y,Y,,Y,Y,Y,,Y,Y,,Y,Y,Y,,Y,Y,,Y,Y,Y
萬里區,207003,C路線晚上,65,加投路82-1號,大鵬里,121.644599,25.214183,20:13,,,Y,Y,,Y,Y,Y,,Y,Y,,Y,Y,Y,,Y,Y,,Y,Y,Y
萬里區,207003,C路線晚上,66,加投路21-9號,大鵬里,121.649118,25.210038,20:14,,,Y,Y,,Y,Y,Y,,Y,Y,,Y,Y,Y,,Y,Y,,Y,Y,Y
萬里區,207003,C路線晚上,67,加投路14號(大鵬國小),大鵬里,121.650068,25.209347,20:17,,,Y,Y,,Y,Y,Y,,Y,Y,,Y,Y,Y,,Y,Y,,Y,Y,Y
萬里區,207003,C路線晚上,68,頂社路5號,大鵬里,121.6522952,25.20873301,20:20,,,Y,Y,,Y,Y,Y,,Y,Y,,Y,Y,Y,,Y,Y,,Y,Y,Y
萬里區,207003,C路線晚上,69,玉田路14-3號,龜吼里,121.68379365641408,25.191547094449618,20:25,,,Y,Y,,Y,Y,Y,,Y,Y,,Y,Y,Y,,Y,Y,,Y,Y,Y
萬里區,207003,C路線晚上,70,石角路13號,龜吼里,121.68367472023772,25.19133698971964,20:26,,,Y,Y,,Y,Y,Y,,Y,Y,,Y,Y,Y,,Y,Y,,Y,Y,Y
萬里區,207003,C路線晚上,71,石角路11號,龜吼里,121.68353325396731,25.191080664865165,20:27,,,Y,Y,,Y,Y,Y,,Y,Y,,Y,Y,Y,,Y,Y,,Y,Y,Y
萬里區,207004,D路線晚上,1,景美路16號(消防隊),萬里里,121.686996,25.173492,17:30,,,Y,Y,,Y,Y,Y,,Y,Y,,Y,Y,Y,,Y,Y,,Y,Y,Y
萬里區,207004,D路線晚上,2,景美路15-1號,萬里里,121.686440,25.173155,17:31,,,Y,Y,,Y,Y,Y,,Y,Y,,Y,Y,Y,,Y,Y,,Y,Y,Y
萬里區,207004,D路線晚上,3,景美路3號,萬里里,121.680634,25.168629,17:34,,,Y,Y,,Y,Y,Y,,Y,Y,,Y,Y,Y,,Y,Y,,Y,Y,Y
萬里區,207004,D路線晚上,4,中幅路27-1號,中幅里,121.679825,25.167492,17:38,,,Y,Y,,Y,Y,Y,,Y,Y,,Y,Y,Y,,Y,Y,,Y,Y,Y
萬里區,207004,D路線晚上,5,中幅路6號,中幅里,121.680450,25.166527,17:41,,,Y,Y,,Y,Y,Y,,Y,Y,,Y,Y,Y,,Y,Y,,Y,Y,Y
萬里區,207004,D路線晚上,6,中幅路4號,中幅里,121.686569,25.164911,17:43,,,Y,Y,,Y,Y,Y,,Y,Y,,Y,Y,Y,,Y,Y,,Y,Y,Y
萬里區,207004,D路線晚上,7,中幅路20號,中幅里,121.682678,25.164955,17:45,,,Y,Y,,Y,Y,Y,,Y,Y,,Y,Y,Y,,Y,Y,,Y,Y,Y
萬里區,207004,D路線晚上,8,景美路14號,萬里里,121.686386,25.173075,17:47,,,Y,Y,,Y,Y,Y,,Y,Y,,Y,Y,Y,,Y,Y,,Y,Y,Y
萬里區,207004,D路線晚上,9,瑪鋉頂街62-2號(巷口),萬里里,121.688446,25.180565,17:51,,,Y,Y,,Y,Y,Y,,Y,Y,,Y,Y,Y,,Y,Y,,Y,Y,Y
萬里區,207004,D路線晚上,10,瑪鋉頂街95號,萬里里,121.687675,25.180298,17:54,,,Y,Y,,Y,Y,Y,,Y,Y,,Y,Y,Y,,Y,Y,,Y,Y,Y
萬里區,207004,D路線晚上,11,中幅路48號(涼亭前),中幅里,121.683571,25.173985,18:00,,,Y,Y,,Y,Y,Y,,Y,Y,,Y,Y,Y,,Y,Y,,Y,Y,Y
萬里區,207004,D路線晚上,12,中幅路52號巷口(牌樓),中幅里,121.681503,25.172632,18:02,,,Y,Y,,Y,Y,Y,,Y,Y,,Y,Y,Y,,Y,Y,,Y,Y,Y
萬里區,207004,D路線晚上,13,中幅57-2號巷口,中幅里,121.680527,25.172480,18:04,,,Y,Y,,Y,Y,Y,,Y,Y,,Y,Y,Y,,Y,Y,,Y,Y,Y
萬里區,207004,D路線晚上,14,中幅路58-10號巷口,中幅里,121.679573,25.171934,18:07,,,Y,Y,,Y,Y,Y,,Y,Y,,Y,Y,Y,,Y,Y,,Y,Y,Y
萬里區,207004,D路線晚上,15,中幅路89號(瑤池聖道院),中幅里,121.676231,25.170933,18:09,,,Y,Y,,Y,Y,Y,,Y,Y,,Y,Y,Y,,Y,Y,,Y,Y,Y
萬里區,207004,D路線晚上,16,中幅路94號巷口,中幅里,121.675438,25.170160,18:13,,,Y,Y,,Y,Y,Y,,Y,Y,,Y,Y,Y,,Y,Y,,Y,Y,Y
萬里區,207004,D路線晚上,17,中幅路176號旁,中幅里,121.674171,25.165876,18:15,,,Y,Y,,Y,Y,Y,,Y,Y,,Y,Y,Y,,Y,Y,,Y,Y,Y
萬里區,207004,D路線晚上,18,中幅路215號(斜對面福興宮),中幅里,121.671883,25.165266,18:17,,,Y,Y,,Y,Y,Y,,Y,Y,,Y,Y,Y,,Y,Y,,Y,Y,Y
萬里區,207004,D路線晚上,19,中幅路214號,中幅里,121.672958,25.165150,18:19,,,Y,Y,,Y,Y,Y,,Y,Y,,Y,Y,Y,,Y,Y,,Y,Y,Y
萬里區,207004,D路線晚上,20,中幅路35號,中幅里,121.678665,25.167046,18:23,,,Y,Y,,Y,Y,Y,,Y,Y,,Y,Y,Y,,Y,Y,,Y,Y,Y
萬里區,207004,D路線晚上,21,中幅路46號,中幅里,121.679596,25.168348,18:25,,,Y,Y,,Y,Y,Y,,Y,Y,,Y,Y,Y,,Y,Y,,Y,Y,Y
萬里區,207004,D路線晚上,22,中幅路41號巷口,中幅里,121.6808266,25.16977641,18:27,,,Y,Y,,Y,Y,Y,,Y,Y,,Y,Y,Y,,Y,Y,,Y,Y,Y
萬里區,207004,D路線晚上,23,瑪鋉路250號旁,萬里里,121.688866,25.180866,18:30,,,Y,Y,,Y,Y,Y,,Y,Y,,Y,Y,Y,,Y,Y,,Y,Y,Y
萬里區,207004,D路線晚上,24,瑪鋉路290號,萬里里,121.688393,25.181622,18:32,,,Y,Y,,Y,Y,Y,,Y,Y,,Y,Y,Y,,Y,Y,,Y,Y,Y
萬里區,207004,D路線晚上,25,瑪鋉路206-1號(小吃店),萬里里,121.689606,25.180559,18:34,,,Y,Y,,Y,Y,Y,,Y,Y,,Y,Y,Y,,Y,Y,,Y,Y,Y
萬里區,207004,D路線晚上,26,瑪鋉下街67號,萬里里,121.690994,25.179966,18:36,,,Y,Y,,Y,Y,Y,,Y,Y,,Y,Y,Y,,Y,Y,,Y,Y,Y
萬里區,207004,D路線晚上,27,獅頭路2號巷口,萬里里,121.6928396,25.1793486,18:38,,,,Y,,Y,Y,Y,,Y,Y,,Y,Y,Y,,Y,Y,,Y,Y,Y
萬里區,207004,D路線晚上,28,獅頭路10-1號巷口,萬里里,121.692543,25.179237,18:40,,,Y,Y,,Y,Y,Y,,,Y,,Y,Y,Y,,Y,Y,,Y,Y,Y
萬里區,207004,D路線晚上,29,獅頭路3號(土地公廟),萬里里,121.691841,25.178007,18:42,,,Y,Y,,Y,Y,Y,,Y,Y,,Y,Y,Y,,Y,Y,,Y,Y,Y
萬里區,207004,D路線晚上,30,瑪鋉下街2-1號(國中橋頭),萬里里,121.691093,25.178249,19:05,,,Y,Y,,Y,Y,Y,,Y,Y,,Y,Y,Y,,Y,Y,,Y,Y,Y
萬里區,207004,D路線晚上,31,瑪鋉下街29號,萬里里,121.691246,25.178684,19:07,,,Y,Y,,Y,Y,Y,,Y,Y,,Y,Y,Y,,Y,Y,,Y,Y,Y
萬里區,207004,D路線晚上,32,瑪鋉下街50號(廟口),萬里里,121.691673,25.179554,19:09,,,Y,Y,,Y,Y,Y,,Y,Y,,Y,Y,Y,,Y,Y,,Y,Y,Y
萬里區,207004,D路線晚上,33,瑪鋉路54巷15號,萬里里,121.690292,25.177156,19:11,,,Y,Y,,Y,Y,Y,,Y,Y,,Y,Y,Y,,Y,Y,,Y,Y,Y
萬里區,207004,D路線晚上,34,瑪鋉路30巷26號,萬里里,121.690002,25.176857,19:13,,,Y,Y,,Y,Y,Y,,Y,Y,,Y,Y,Y,,Y,Y,,Y,Y,Y
萬里區,207004,D路線晚上,35,瑪鋉路30巷1弄12號,萬里里,121.690361,25.176401,19:15,,,,Y,,Y,Y,Y,,Y,Y,,Y,Y,Y,,Y,Y,,Y,Y,Y
萬里區,207004,D路線晚上,36,瑪鋉路30巷2弄4號,萬里里,121.690201,25.175903,19:17,,,Y,Y,,Y,Y,Y,,Y,Y,,Y,Y,Y,,Y,Y,,,Y,Y
萬里區,207004,D路線晚上,37,成功新村67號(土地公廟),萬里里,121.688278,25.174604,19:19,,,Y,Y,,Y,Y,Y,,Y,Y,,Y,Y,Y,,Y,Y,,Y,Y,Y
萬里區,207004,D路線晚上,38,成功新村44號,萬里里,121.687958,25.174633,19:21,,,Y,Y,,Y,Y,Y,,Y,Y,,Y,Y,Y,,Y,Y,,Y,Y,Y
萬里區,207004,D路線晚上,39,瑪鋉路6號,萬里里,121.687714,25.175350,19:22,,,Y,Y,,Y,Y,Y,,Y,Y,,Y,Y,Y,,Y,Y,,Y,Y,Y
萬里區,207004,D路線晚上,40,瑪鋉路12-1號,萬里里,121.687813,25.175854,19:23,,,Y,Y,,Y,Y,Y,,Y,Y,,Y,Y,Y,,Y,Y,,Y,Y,Y
萬里區,207004,D路線晚上,41,成功新村2號,萬里里,121.688728,25.175520,19:24,,,Y,Y,,Y,Y,Y,,Y,Y,,Y,Y,Y,,Y,Y,,Y,Y,Y
萬里區,207004,D路線晚上,42,成功新村93號,萬里里,121.688828,25.175430,19:26,,,Y,Y,,Y,Y,Y,,Y,Y,,Y,Y,Y,,Y,Y,,Y,Y,Y
萬里區,207004,D路線晚上,43,瑪鋉路85-2號,萬里里,121.688934,25.177134,19:28,,,Y,Y,,Y,Y,Y,,Y,Y,,Y,Y,Y,,Y,Y,,Y,Y,Y
萬里區,207004,D路線晚上,44,瑪鋉頂街42號,萬里里,121.688805,25.177429,19:30,,,Y,Y,,Y,Y,Y,,Y,Y,,Y,Y,Y,,Y,Y,,Y,Y,Y
萬里區,207004,D路線晚上,45,瑪鋉頂街47號,萬里里,121.689125,25.178797,19:32,,,Y,Y,,Y,Y,Y,,Y,Y,,Y,Y,Y,,Y,Y,,Y,Y,Y
萬里區,207004,D路線晚上,46,瑪鋉路127號(蛋糕店路口),萬里里,121.689026,25.178173,19:33,,,Y,Y,,Y,Y,Y,,Y,Y,,Y,Y,Y,,Y,Y,,Y,Y,Y
萬里區,207004,D路線晚上,47,瑪鋉路103號,萬里里,121.688576,25.177032,19:35,,,Y,Y,,Y,Y,Y,,Y,Y,,Y,Y,Y,,Y,Y,,Y,Y,Y
萬里區,207004,D路線晚上,48,瑪鋉路79號(萬里國小對面),萬里里,121.688393,25.176571,19:37,,,Y,Y,,Y,Y,Y,,Y,Y,,Y,Y,Y,,Y,Y,,Y,Y,Y
萬里區,207004,D路線晚上,49,瑪鋉路49號,萬里里,121.687996,25.176142,19:39,,,Y,Y,,Y,Y,Y,,Y,Y,,Y,Y,Y,,Y,Y,,Y,Y,Y
萬里區,207004,D路線晚上,50,瑪鋉路39號,萬里里,121.687881,25.176027,19:40,,,Y,Y,,Y,Y,Y,,Y,Y,,Y,Y,Y,,Y,Y,,Y,Y,Y
萬里區,207004,D路線晚上,51,瑪鋉路5-3號,萬里里,121.687767,25.175829,19:42,,,Y,Y,,Y,Y,Y,,Y,Y,,Y,Y,Y,,Y,Y,,Y,Y,Y
萬里區,207004,D路線晚上,52,瑪鋉路24-1號,萬里里,121.687866,25.175926,19:44,,,Y,Y,,Y,Y,Y,,Y,Y,,Y,Y,Y,,Y,Y,,Y,Y,Y
萬里區,207004,D路線晚上,53,瑪鋉路34號,萬里里,121.687912,25.175999,19:45,,,Y,Y,,Y,Y,Y,,Y,Y,,Y,Y,Y,,Y,Y,,Y,Y,Y
萬里區,207004,D路線晚上,54,瑪鋉路80號,萬里里,121.690079,25.178289,19:47,,,Y,Y,,Y,Y,Y,,Y,Y,,Y,Y,Y,,Y,Y,,Y,Y,Y
萬里區,207004,D路線晚上,55,瑪鋉路110號(昭靈宮前),萬里里,121.690605,25.179010,19:49,,,Y,Y,,Y,Y,Y,,Y,Y,,Y,Y,Y,,Y,Y,,Y,Y,Y
萬里區,207004,D路線晚上,56,瑪鋉路144號,萬里里,121.690346,25.179520,19:50,,,Y,Y,,Y,Y,Y,,Y,Y,,Y,Y,Y,,Y,Y,,Y,Y,Y
萬里區,207004,D路線晚上,57,瑪鋉路228號(商店),萬里里,121.689148,25.180536,19:52,,,Y,Y,,Y,Y,Y,,Y,Y,,Y,Y,Y,,Y,Y,,Y,Y,Y
萬里區,207004,D路線晚上,58,忠二街15號(街口),北基里,121.684914,25.175514,20:00,,,Y,Y,,Y,Y,Y,,Y,Y,,Y,Y,Y,,Y,Y,,Y,Y,Y
萬里區,207004,D路線晚上,59,忠二街17號(街口),北基里,121.6856547,25.17599998,20:03,,,Y,Y,,Y,Y,Y,,Y,Y,,Y,Y,Y,,Y,Y,,Y,Y,Y
萬里區,207004,D路線晚上,60,忠四街46號,北基里,121.6853121,25.17647372,20:04,,,Y,Y,,Y,Y,Y,,Y,Y,,Y,Y,Y,,Y,Y,,Y,Y,Y
萬里區,207004,D路線晚上,61,大勇路31號(敬天宮),北基里,121.684090,25.177830,20:05,,,Y,Y,,Y,Y,Y,,Y,Y,,Y,Y,Y,,Y,Y,,Y,Y,Y
萬里區,207004,D路線晚上,62,愛一街1號(街口),北基里,121.684135,25.178213,20:08,,,Y,Y,,Y,Y,Y,,Y,Y,,Y,Y,Y,,Y,Y,,Y,Y,Y
萬里區,207004,D路線晚上,63,愛三街9號(街口),北基里,121.681854,25.176651,20:10,,,Y,Y,,Y,Y,Y,,Y,Y,,Y,Y,Y,,Y,Y,,Y,Y,Y
萬里區,207004,D路線晚上,64,大勇路14號仁二街口,北基里,121.682129,25.176447,20:12,,,Y,Y,,Y,Y,Y,,Y,Y,,Y,Y,Y,,Y,Y,,Y,Y,Y
萬里區,207004,D路線晚上,65,仁七街12號(街口),北基里,121.680901,25.175907,20:15,,,Y,Y,,Y,Y,Y,,Y,Y,,Y,Y,Y,,Y,Y,,Y,Y,Y
萬里區,207004,D路線晚上,66,仁六街1號(街口),北基里,121.681480,25.175060,20:17,,,Y,Y,,Y,Y,Y,,Y,Y,,Y,Y,Y,,Y,Y,,Y,Y,Y
萬里區,207004,D路線晚上,67,大仁街9號(商店對面),北基里,121.682236,25.175360,20:19,,,Y,Y,,Y,Y,Y,,Y,Y,,Y,Y,Y,,Y,Y,,Y,Y,Y
萬里區,207004,D路線晚上,68,孝七街5號(街口),北基里,121.683128,25.175749,20:22,,,Y,Y,,Y,Y,Y,,Y,Y,,Y,Y,Y,,Y,Y,,Y,Y,Y
萬里區,207004,D路線晚上,69,孝六街4號(街口),北基里,121.683372,25.175961,20:23,,,Y,Y,,Y,Y,Y,,Y,Y,,Y,Y,Y,,Y,Y,,Y,Y,Y
萬里區,207004,D路線晚上,70,孝三街10號(街口),北基里,121.684029,25.176662,20:25,,,Y,Y,,Y,Y,Y,,Y,Y,,Y,Y,Y,,Y,Y,,Y,Y,Y
萬里區,207004,D路線晚上,71,忠六街5號(雜貨店旁),北基里,121.684444,25.17610677,20:28,,,Y,Y,,Y,Y,Y,,Y,Y,,Y,Y,Y,,Y,Y,,Y,Y,Y
萬里區,207004,D路線晚上,72,忠四街20號(街口),北基里,121.6845245,25.17592408,20:30,,,Y,Y,,Y,Y,Y,,Y,Y,,Y,Y,Y,,Y,Y,,Y,Y,Y
金山區,208001,"金山1路線 晚上1",1,社寮2號,磺港里,121.639732,25.228693,17:55,2025通報,,Y,Y,,Y,Y,Y,,Y,Y,,Y,Y,Y,,Y,Y,,Y,Y,Y
金山區,208001,"金山1路線 晚上1",2,社寮17號,磺港里,121.63871,25.227715,17:57,,,Y,Y,,Y,Y,Y,,Y,Y,,Y,Y,Y,,Y,Y,,Y,Y,Y
金山區,208001,"金山1路線 晚上1",3,磺港路164號(金山青年活動中心對面),磺港里,121.64357,25.224972,17:59,,,Y,Y,,Y,Y,Y,,Y,Y,,Y,Y,Y,,Y,Y,,Y,Y,Y
金山區,208001,"金山1路線 晚上1",4,承天宮前,磺港里,121.6446,25.225725,18:01,,,Y,Y,,Y,Y,Y,,Y,Y,,Y,Y,Y,,Y,Y,,Y,Y,Y
金山區,208001,"金山1路線 晚上1",5,磺港路77號(山尾),磺港里,121.647537,25.226583,18:06,,,Y,Y,,Y,Y,Y,,Y,Y,,Y,Y,Y,,Y,Y,,Y,Y,Y
金山區,208001,"金山1路線 晚上1",6,磺港路105號(山尾),磺港里,121.64592,25.22646,18:08,,,Y,Y,,Y,Y,Y,,Y,Y,,Y,Y,Y,,Y,Y,,Y,Y,Y
金山區,208001,"金山1路線 晚上1",7,磺港路28號(山尾),磺港里,121.649429,25.228855,18:12,,,Y,Y,,Y,Y,Y,,Y,Y,,Y,Y,Y,,Y,Y,,Y,Y,Y
金山區,208001,"金山1路線 晚上1",8,自強路52號,五湖里,121.640432,25.216099,18:20,,,Y,Y,,Y,Y,Y,,Y,Y,,Y,Y,Y,,Y,Y,,Y,Y,Y
金山區,208001,"金山1路線 晚上1",9,中正路9號(農會超市後門),金美里,121.637123,25.22257,18:27,,,Y,Y,,Y,Y,Y,,Y,Y,,Y,Y,Y,,Y,Y,,Y,Y,Y
金山區,208001,"金山1路線 晚上1",10,溫泉路21巷口,大同里,121.637688,25.222782,18:28,,,Y,Y,,Y,Y,Y,,Y,Y,,Y,Y,Y,,Y,Y,,Y,Y,Y
金山區,208001,"金山1路線 晚上1",11,文化二路2號(金山高中),美田里,121.636887,25.224583,18:30,,,Y,Y,,Y,Y,Y,,Y,Y,,Y,Y,Y,,Y,Y,,Y,Y,Y
金山區,208001,"金山1路線 晚上1",12,文化一路與文化三路口(金山國小後門),美田里,121.63623,25.224035,18:34,,,Y,Y,,Y,Y,Y,,Y,Y,,Y,Y,Y,,Y,Y,,Y,Y,Y
金山區,208001,"金山1路線 晚上1",13,文化三路24號,美田里,121.63578,25.224501,18:36,,,Y,Y,,Y,Y,Y,,Y,Y,,Y,Y,Y,,Y,Y,,Y,Y,Y
金山區,208001,"金山1路線 晚上1",14,文化三路32巷口,美田里,121.635567,25.224688,18:38,,,Y,Y,,Y,Y,Y,,Y,Y,,Y,Y,Y,,Y,Y,,Y,Y,Y
金山區,208001,"金山1路線 晚上1",15,文化三路42號(水漫波),美田里,121.635208,25.22504,18:39,,,Y,Y,,Y,Y,Y,,Y,Y,,Y,Y,Y,,Y,Y,,Y,Y,Y
金山區,208001,"金山1路線 晚上1",16,文化三路66巷口(金山新市),美田里,121.634293,25.225626,18:45,,,Y,Y,,Y,Y,Y,,Y,Y,,Y,Y,Y,,Y,Y,,Y,Y,Y
金山區,208001,"金山1路線 晚上1",17,中山路97號(金山郵局),五湖里,121.640053,25.219013,18:57,,,Y,Y,,Y,Y,Y,,Y,Y,,Y,Y,Y,,Y,Y,,Y,Y,Y
金山區,208001,"金山1路線 晚上1",18,民生路45號,和平里,121.641647,25.220898,19:02,2025通報,,Y,Y,,Y,Y,Y,,Y,Y,,Y,Y,Y,,Y,Y,,Y,Y,Y
金山區,208001,"金山1路線 晚上1",19,民生路206號(怡美賓館),大同里,121.641113,25.220749,19:03,,,Y,Y,,Y,Y,Y,,Y,Y,,Y,Y,Y,,Y,Y,,Y,Y,Y
金山區,208001,"金山1路線 晚上1",20,金包里街10號(慈護宮),大同里,121.640503,25.22043,19:04,,,Y,Y,,Y,Y,Y,,Y,Y,,Y,Y,Y,,Y,Y,,Y,Y,Y
金山區,208001,"金山1路線 晚上1",21,溫泉路2巷口,大同里,121.640221,25.221996,19:06,,,Y,Y,,Y,Y,Y,,Y,Y,,Y,Y,Y,,Y,Y,,Y,Y,Y
金山區,208001,"金山1路線 晚上1",22,溫泉路13巷口,大同里,121.639542,25.221954,19:07,,,Y,Y,,Y,Y,Y,,Y,Y,,Y,Y,Y,,Y,Y,,Y,Y,Y
金山區,208001,"金山1路線 晚上1",23,台中旅社旁,大同里,121.639053,25.221663,19:08,,,Y,Y,,Y,Y,Y,,Y,Y,,Y,Y,Y,,Y,Y,,Y,Y,Y
金山區,208001,"金山1路線 晚上1",24,慈護街23號,和平里,121.639633,25.220375,19:16,,,Y,Y,,Y,Y,Y,,Y,Y,,Y,Y,Y,,Y,Y,,Y,Y,Y
金山區,208001,"金山1路線 晚上1",25,民生路69號,和平里,121.639969,25.219612,19:18,,,Y,Y,,Y,Y,Y,,Y,Y,,Y,Y,Y,,Y,Y,,Y,Y,Y
金山區,208001,"金山1路線 晚上1",26,金包里街22號(老街),大同里,121.639885,25.22077,19:23,,,Y,Y,,Y,Y,Y,,Y,Y,,Y,Y,Y,,Y,Y,,Y,Y,Y
金山區,208001,"金山1路線 晚上1",27,金包里街29號(老街),和平里,121.639359,25.221145,19:23,,,Y,Y,,Y,Y,Y,,Y,Y,,Y,Y,Y,,Y,Y,,Y,Y,Y
金山區,208001,"金山1路線 晚上1",28,金包里街與溫泉路口(老街橋頭),大同里,121.638885,25.221516,19:24,,,Y,Y,,Y,Y,Y,,Y,Y,,Y,Y,Y,,Y,Y,,Y,Y,Y
金山區,208001,"金山1路線 晚上1",29,金包里街78號(老街),大同里,121.638512,25.221758,19:25,,,Y,Y,,Y,Y,Y,,Y,Y,,Y,Y,Y,,Y,Y,,Y,Y,Y
金山區,208001,"金山1路線 晚上1",30,金包里街102號(老街廟口),大同里,121.638252,25.221909,19:26,,,Y,Y,,Y,Y,Y,,Y,Y,,Y,Y,Y,,Y,Y,,Y,Y,Y
金山區,208001,"金山1路線 晚上1",31,金包里街150號(老街),大同里,121.637886,25.222254,19:27,,,Y,Y,,Y,Y,Y,,Y,Y,,Y,Y,Y,,Y,Y,,Y,Y,Y
金山區,208001,"金山1路線 晚上1",32,金包里街與中正路口,大同里,121.637352,25.222647,19:28,,,Y,Y,,Y,Y,Y,,Y,Y,,Y,Y,Y,,Y,Y,,Y,Y,Y
金山區,208001,"金山1路線 晚上1",33,消防隊/南勢54號(陽金公路),五湖里,121.628324860118,25.2207337956772,19:32,,,Y,Y,,Y,Y,Y,,Y,Y,,Y,Y,Y,,Y,Y,,Y,Y,Y
金山區,208001,"金山1路線 晚上1",34,基隆客運(陽金公路),五湖里,121.625261796295,25.2202051797498,19:33,2025通報,,Y,Y,,Y,Y,Y,,Y,Y,,Y,Y,Y,,Y,Y,,Y,Y,Y
金山區,208001,"金山1路線 晚上1",35,南勢114號(陽金公路),五湖里,121.622776271163,25.2196808864755,19:34,,,Y,Y,,Y,Y,Y,,Y,Y,,Y,Y,Y,,Y,Y,,Y,Y,Y
金山區,208001,"金山1路線 晚上1",36,下六股39號(六股中橋旁),六股里,121.619865,25.221422,19:36,2025通報,,Y,Y,,Y,Y,Y,,Y,Y,,Y,Y,Y,,Y,Y,,Y,Y,Y
金山區,208001,"金山1路線 晚上1",37,下六股49號,六股里,121.617661,25.221807,19:37,2025通報,,Y,Y,,Y,Y,Y,,Y,Y,,Y,Y,Y,,Y,Y,,Y,Y,Y
金山區,208001,"金山1路線 晚上1",38,下六股52號,六股里,121.617119,25.221603,19:38,2025通報,,Y,Y,,Y,Y,Y,,Y,Y,,Y,Y,Y,,Y,Y,,Y,Y,Y
金山區,208001,"金山1路線 晚上1",39,下六股52之1號路口,六股里,121.616539,25.221651,19:38,2025通報,,Y,Y,,Y,Y,Y,,Y,Y,,Y,Y,Y,,Y,Y,,Y,Y,Y
金山區,208001,"金山1路線 晚上1",40,下六股59號,六股里,121.615257,25.222166,19:38,2025通報,,Y,Y,,Y,Y,Y,,Y,Y,,Y,Y,Y,,Y,Y,,Y,Y,Y
金山區,208001,"金山1路線 晚上1",41,六股活動中心,六股里,121.614548,25.22319,19:39,2025通報,,Y,Y,,Y,Y,Y,,Y,Y,,Y,Y,Y,,Y,Y,,Y,Y,Y
金山區,208001,"金山1路線 晚上1",42,佳園老人養護中心路口(下六股),六股里,121.612328,25.222361,19:40,,,Y,Y,,Y,Y,Y,,Y,Y,,Y,Y,Y,,Y,Y,,Y,Y,Y
金山區,208001,"金山1路線 晚上1",43,頂六股6鄰6號路口,六股里,121.611687,25.221943,19:41,2025通報,,Y,Y,,Y,Y,Y,,Y,Y,,Y,Y,Y,,Y,Y,,Y,Y,Y
金山區,208001,"金山1路線 晚上1",44,六股林口2號,六股里,121.610313,25.22226,19:42,2025通報,,Y,Y,,Y,Y,Y,,Y,Y,,Y,Y,Y,,Y,Y,,Y,Y,Y
金山區,208001,"金山1路線 晚上1",45,六股林口6號,六股里,121.609619,25.222105,19:42,2025通報,,Y,Y,,Y,Y,Y,,Y,Y,,Y,Y,Y,,Y,Y,,Y,Y,Y
金山區,208001,"金山1路線 晚上1",46,六股林口4號路口,六股里,121.609184,25.221968,19:42,2025通報,,Y,Y,,Y,Y,Y,,Y,Y,,Y,Y,Y,,Y,Y,,Y,Y,Y
金山區,208001,"金山1路線 晚上1",47,六股林口5之5號(三叉路口),重和里,121.60778,25.223078,19:43,2025通報,,Y,Y,,Y,Y,Y,,Y,Y,,Y,Y,Y,,Y,Y,,Y,Y,Y
金山區,208001,"金山1路線 晚上1",48,六股林口15號,重和里,121.605705,25.222267,19:43,2025通報,,Y,Y,,Y,Y,Y,,Y,Y,,Y,Y,Y,,Y,Y,,Y,Y,Y
金山區,208001,"金山1路線 晚上1",49,六股林口17號,重和里,121.604897,25.221678,19:43,2025通報,,Y,Y,,Y,Y,Y,,Y,Y,,Y,Y,Y,,Y,Y,,Y,Y,Y
金山區,208001,"金山1路線 晚上1",50,六股林口21號路口,重和里,121.603912,25.219822,19:44,,,Y,Y,,Y,Y,Y,,Y,Y,,Y,Y,Y,,Y,Y,,Y,Y,Y
金山區,208001,"金山1路線 晚上1",51,六股林口29號,重和里,121.603256,25.219225,19:44,,,Y,Y,,Y,Y,Y,,Y,Y,,Y,Y,Y,,Y,Y,,Y,Y,Y
金山區,208001,"金山1路線 晚上1",52,重三社區活動中心,重和里,121.602051,25.219761,19:46,,,Y,Y,,Y,Y,Y,,Y,Y,,Y,Y,Y,,Y,Y,,Y,Y,Y
金山區,208001,"金山1路線 晚上1",53,六股林口39號(美利商店),重和里,121.602463,25.21941,19:47,2025通報,,Y,Y,,Y,Y,Y,,Y,Y,,Y,Y,Y,,Y,Y,,Y,Y,Y
金山區,208001,"金山1路線 晚上1",54,奇峰石(林口),重和里,121.597382,25.209396,19:50,,,Y,Y,,Y,Y,Y,,Y,Y,,Y,Y,Y,,Y,Y,,Y,Y,Y
金山區,208001,"金山1路線 晚上1",55,林口32號(羽宣民宿),重和里,121.596283,25.20961,19:50,,,Y,Y,,Y,Y,Y,,Y,Y,,Y,Y,Y,,Y,Y,,Y,Y,Y
金山區,208001,"金山1路線 晚上1",56,林口27號,重和里,121.596649,25.210043,19:51,2025通報,,Y,Y,,Y,Y,Y,,Y,Y,,Y,Y,Y,,Y,Y,,Y,Y,Y
金山區,208001,"金山1路線 晚上1",57,林口15號,重和里,121.597122,25.210455,19:51,2025通報,,Y,Y,,Y,Y,Y,,Y,Y,,Y,Y,Y,,Y,Y,,Y,Y,Y
金山區,208001,"金山1路線 晚上1",58,林口11號(華豐鐵工廠),重和里,121.598877,25.211552,19:52,2025通報,,Y,Y,,Y,Y,Y,,Y,Y,,Y,Y,Y,,Y,Y,,Y,Y,Y
金山區,208001,"金山1路線 晚上1",59,林口7號,重和里,121.599541,25.211962,19:53,2025通報,,Y,Y,,Y,Y,Y,,Y,Y,,Y,Y,Y,,Y,Y,,Y,Y,Y
金山區,208001,"金山1路線 晚上1",60,茅埔頭22之1號檳榔攤(陽金公路),重和里,121.601505017196,25.2132044665693,19:53,2025通報,,Y,Y,,Y,Y,Y,,Y,Y,,Y,Y,Y,,Y,Y,,Y,Y,Y
金山區,208001,"金山1路線 晚上1",61,重光派出所(陽金公路),重和里,121.603833847885,25.2162801838208,19:54,,,Y,Y,,Y,Y,Y,,Y,Y,,Y,Y,Y,,Y,Y,,Y,Y,Y
金山區,208001,"金山1路線 晚上1",62,茅埔頭8號(陽金公路),重和里,121.604116203704,25.2167088807779,19:54,2025通報,,Y,Y,,Y,Y,Y,,Y,Y,,Y,Y,Y,,Y,Y,,Y,Y,Y
金山區,208001,"金山1路線 晚上1",63,茅埔頭5號(陽金公路),重和里,121.60429428836,25.217050174481,19:55,,,Y,Y,,Y,Y,Y,,Y,Y,,Y,Y,Y,,Y,Y,,Y,Y,Y
金山區,208001,"金山1路線 晚上1",64,南勢湖36號(陽金公路),五湖里,121.616051,25.218147,19:57,2025通報,,Y,Y,,Y,Y,Y,,Y,Y,,Y,Y,Y,,Y,Y,,Y,Y,Y
金山區,208001,"金山1路線 晚上1",65,南勢湖14號(陽金公路),五湖里,121.621124,25.219208,19:57,2025通報,,Y,Y,,Y,Y,Y,,Y,Y,,Y,Y,Y,,Y,Y,,Y,Y,Y
金山區,208001,"金山1路線 晚上1",66,南勢湖4號(陽金公路),五湖里,121.621735,25.219349,19:58,2025通報,,Y,Y,,Y,Y,Y,,Y,Y,,Y,Y,Y,,Y,Y,,Y,Y,Y
金山區,208001,"金山1路線 晚上1",67,南勢101號(陽金公路),五湖里,121.623161,25.219589,19:58,2025通報,,Y,Y,,Y,Y,Y,,Y,Y,,Y,Y,Y,,Y,Y,,Y,Y,Y
金山區,208001,"金山1路線 晚上1",68,南勢81號(陽金公路),五湖里,121.625359,25.220024,19:59,2025通報,,Y,Y,,Y,Y,Y,,Y,Y,,Y,Y,Y,,Y,Y,,Y,Y,Y
金山區,208001,"金山1路線 晚上1",69,南勢40號巷口(陽金公路),五湖里,121.627958167983,25.2205208781594,19:59,2025通報,,Y,Y,,Y,Y,Y,,Y,Y,,Y,Y,Y,,Y,Y,,Y,Y,Y
金山區,208001,"金山1路線 晚上1",70,南勢46號(陽金公路),五湖里,121.628709543655,25.2206736487623,20:00,2025通報,,Y,Y,,Y,Y,Y,,Y,Y,,Y,Y,Y,,Y,Y,,Y,Y,Y
金山區,208001,"金山1路線 晚上1",71,金山醫院大門前,五湖里,121.62899,25.219597,20:01,2025通報,,Y,Y,,Y,Y,Y,,Y,Y,,Y,Y,Y,,Y,Y,,Y,Y,Y
金山區,208002,"金山2路線 晚上1",1,清水路4號,清泉里,121.63015,25.227608,17:55,2025通報,,Y,Y,,Y,Y,Y,,Y,Y,,Y,Y,Y,,Y,Y,,Y,Y,Y
金山區,208002,"金山2路線 晚上1",2,三界壇路2號,清泉里,121.628052,25.22776,17:57,,,Y,Y,,Y,Y,Y,,Y,Y,,Y,Y,Y,,Y,Y,,Y,Y,Y
金山區,208002,"金山2路線 晚上1",3,三界壇路21號,清泉里,121.627419,25.227934,17:58,,,Y,Y,,Y,Y,Y,,Y,Y,,Y,Y,Y,,Y,Y,,Y,Y,Y
金山區,208002,"金山2路線 晚上1",4,三界壇路65巷口,清泉里,121.625107,25.228575,17:59,,,Y,Y,,Y,Y,Y,,Y,Y,,Y,Y,Y,,Y,Y,,Y,Y,Y
金山區,208002,"金山2路線 晚上1",5,三界壇路89巷口,清泉里,121.62468,25.228687,18:00,,,Y,Y,,Y,Y,Y,,Y,Y,,Y,Y,Y,,Y,Y,,Y,Y,Y
金山區,208002,"金山2路線 晚上1",6,三界壇路95巷口,清泉里,121.623505,25.229004,18:01,2025通報,,Y,Y,,Y,Y,Y,,Y,Y,,Y,Y,Y,,Y,Y,,Y,Y,Y
金山區,208002,"金山2路線 晚上1",7,三界壇路97巷口,三界里,121.622818,25.229219,18:01,2025通報,,Y,Y,,Y,Y,Y,,Y,Y,,Y,Y,Y,,Y,Y,,Y,Y,Y
金山區,208002,"金山2路線 晚上1",8,三界壇路72號(聖德宮),三界里,121.619965,25.230871,18:02,,,Y,Y,,Y,Y,Y,,Y,Y,,Y,Y,Y,,Y,Y,,Y,Y,Y
金山區,208002,"金山2路線 晚上1",9,三界壇路111巷6號,三界里,121.619614,25.231066,18:02,,,Y,Y,,Y,Y,Y,,Y,Y,,Y,Y,Y,,Y,Y,,Y,Y,Y
金山區,208002,"金山2路線 晚上1",10,三界壇路109巷4號,三界里,121.617271,25.230259,18:03,2025通報,,Y,Y,,Y,Y,Y,,Y,Y,,Y,Y,Y,,Y,Y,,Y,Y,Y
金山區,208002,"金山2路線 晚上1",11,三界壇路109巷22號,三界里,121.616211,25.229315,18:04,2025通報,,Y,Y,,Y,Y,Y,,Y,Y,,Y,Y,Y,,Y,Y,,Y,Y,Y
金山區,208002,"金山2路線 晚上1",12,潭子內9號巷口,六股里,121.614273,25.227972,18:04,2025通報,,Y,Y,,Y,Y,Y,,Y,Y,,Y,Y,Y,,Y,Y,,Y,Y,Y
金山區,208002,"金山2路線 晚上1",13,潭子內10號,六股里,121.614349,25.227772,18:05,2025通報,,Y,Y,,Y,Y,Y,,Y,Y,,Y,Y,Y,,Y,Y,,Y,Y,Y
金山區,208002,"金山2路線 晚上1",14,潭子內6號,六股里,121.613724,25.22691,18:05,2025通報,,Y,Y,,Y,Y,Y,,Y,Y,,Y,Y,Y,,Y,Y,,Y,Y,Y
金山區,208002,"金山2路線 晚上1",15,三界壇路99巷25號,三界里,121.617294,25.227055,18:06,2025通報,,Y,Y,,Y,Y,Y,,Y,Y,,Y,Y,Y,,Y,Y,,Y,Y,Y
金山區,208002,"金山2路線 晚上1",16,三界壇路99巷22號(巷口),三界里,121.619049,25.227415,18:06,2025通報,,Y,Y,,Y,Y,Y,,Y,Y,,Y,Y,Y,,Y,Y,,Y,Y,Y
金山區,208002,"金山2路線 晚上1",17,三界壇路99巷19號,三界里,121.620148,25.227552,18:07,2025通報,,Y,Y,,Y,Y,Y,,Y,Y,,Y,Y,Y,,Y,Y,,Y,Y,Y
金山區,208002,"金山2路線 晚上1",18,三界壇路99巷15號,三界里,121.620499,25.227705,18:08,2025通報,,Y,Y,,Y,Y,Y,,Y,Y,,Y,Y,Y,,Y,Y,,Y,Y,Y
金山區,208002,"金山2路線 晚上1",19,三界壇路99巷9號,三界里,121.620819,25.227943,18:08,2025通報,,Y,Y,,Y,Y,Y,,Y,Y,,Y,Y,Y,,Y,Y,,Y,Y,Y
金山區,208002,"金山2路線 晚上1",20,三界壇路99巷5號(巷口),三界里,121.621307,25.228302,18:09,2025通報,,Y,Y,,Y,Y,Y,,Y,Y,,Y,Y,Y,,Y,Y,,Y,Y,Y
金山區,208002,"金山2路線 晚上1",21,三界壇路99巷1號,三界里,121.622154,25.228951,18:11,2025通報,,Y,Y,,Y,Y,Y,,Y,Y,,Y,Y,Y,,Y,Y,,Y,Y,Y
金山區,208002,"金山2路線 晚上1",22,西勢三橋(法鼓路),清泉里,121.621941,25.232937,18:12,2025通報,,Y,Y,,Y,Y,Y,,Y,Y,,Y,Y,Y,,Y,Y,,Y,Y,Y
金山區,208002,"金山2路線 晚上1",23,法鼓路118號(鎮天宮),清泉里,121.624825,25.233994,18:13,,,Y,Y,,Y,Y,Y,,Y,Y,,Y,Y,Y,,Y,Y,,Y,Y,Y
金山區,208002,"金山2路線 晚上1",24,法鼓路106號,清泉里,121.625595,25.234426,18:14,,,Y,Y,,Y,Y,Y,,Y,Y,,Y,Y,Y,,Y,Y,,Y,Y,Y
金山區,208002,"金山2路線 晚上1",25,西勢2之5號(法鼓路),清泉里,121.627571,25.235924,18:14,2025通報,,Y,Y,,Y,Y,Y,,Y,Y,,Y,Y,Y,,Y,Y,,Y,Y,Y
金山區,208002,"金山2路線 晚上1",26,法鼓路與淡金公路口,清泉里,121.629395,25.236212,18:15,2025通報,,Y,Y,,Y,Y,Y,,Y,Y,,Y,Y,Y,,Y,Y,,Y,Y,Y
金山區,208002,"金山2路線 晚上1",27,清水路60巷1號,清泉里,121.629524,25.235838,18:16,2025通報,,Y,Y,,Y,Y,Y,,Y,Y,,Y,Y,Y,,Y,Y,,Y,Y,Y
金山區,208002,"金山2路線 晚上1",28,清水路60巷6號,清泉里,121.632767,25.2348,18:17,2025通報,,Y,Y,,Y,Y,Y,,Y,Y,,Y,Y,Y,,Y,Y,,Y,Y,Y
金山區,208002,"金山2路線 晚上1",29,清水路60巷16號,清泉里,121.634003,25.23414,18:18,,,Y,Y,,Y,Y,Y,,Y,Y,,Y,Y,Y,,Y,Y,,Y,Y,Y
金山區,208002,"金山2路線 晚上1",30,忠孝一路5號,五湖里,121.639572,25.21929,18:31,,,Y,Y,,Y,Y,Y,,Y,Y,,Y,Y,Y,,Y,Y,,Y,Y,Y
金山區,208002,"金山2路線 晚上1",31,龜子山6號,五湖里,121.638977,25.218964,18:32,,,Y,Y,,Y,Y,Y,,Y,Y,,Y,Y,Y,,Y,Y,,Y,Y,Y
金山區,208002,"金山2路線 晚上1",32,龜子山8號(市立圖書館金山分館),五湖里,121.63913,25.218616,18:33,2025通報,,Y,Y,,Y,Y,Y,,Y,Y,,Y,Y,Y,,Y,Y,,Y,Y,Y
金山區,208002,"金山2路線 晚上1",33,龜子山30號,五湖里,121.639244,25.218193,18:34,,,Y,Y,,Y,Y,Y,,Y,Y,,Y,Y,Y,,Y,Y,,Y,Y,Y
金山區,208002,"金山2路線 晚上1",34,忠孝一路19巷17號,五湖里,121.637321,25.217789,18:36,,,Y,Y,,Y,Y,Y,,Y,Y,,Y,Y,Y,,Y,Y,,Y,Y,Y
金山區,208002,"金山2路線 晚上1",35,忠孝一路20巷口(獅子會),五湖里,121.638351,25.219549,18:41,,,Y,Y,,Y,Y,Y,,Y,Y,,Y,Y,Y,,Y,Y,,Y,Y,Y
金山區,208002,"金山2路線 晚上1",36,信義路31巷61號,金美里,121.635651,25.218983,18:46,,,Y,Y,,Y,Y,Y,,Y,Y,,Y,Y,Y,,Y,Y,,Y,Y,Y
金山區,208002,"金山2路線 晚上1",37,信義路26號(豪景尊邸),金美里,121.635262,25.219597,18:53,,,Y,Y,,Y,Y,Y,,Y,Y,,Y,Y,Y,,Y,Y,,Y,Y,Y
金山區,208002,"金山2路線 晚上1",38,仁愛路67巷,金美里,121.634881588955,25.2210481670779,19:00,,,Y,Y,,Y,Y,Y,,Y,Y,,Y,Y,Y,,Y,Y,,Y,Y,Y
金山區,208002,"金山2路線 晚上1",39,仁愛路67巷14號,金美里,121.634565699405,25.2208889680579,19:02,,,Y,Y,,Y,Y,Y,,Y,Y,,Y,Y,Y,,Y,Y,,Y,Y,Y
金山區,208002,"金山2路線 晚上1",40,中華路120巷口(輝龍公寓),金美里,121.634009591436,25.2208616512346,19:05,,,Y,Y,,Y,Y,Y,,Y,Y,,Y,Y,Y,,Y,Y,,Y,Y,Y
金山區,208002,"金山2路線 晚上1",41,中正路67號(金玉滿堂),金美里,121.633873,25.221798,19:11,,,Y,Y,,Y,Y,Y,,Y,Y,,Y,Y,Y,,Y,Y,,Y,Y,Y
金山區,208002,"金山2路線 晚上1",42,中華路177巷口,美田里,121.632745300594,25.2218563395213,19:15,,,Y,Y,,Y,Y,Y,,Y,Y,,Y,Y,Y,,Y,Y,,Y,Y,Y
金山區,208002,"金山2路線 晚上1",43,中正路108巷20號,美田里,121.631721,25.222288,19:17,2025通報,,Y,Y,,Y,Y,Y,,Y,Y,,Y,Y,Y,,Y,Y,,Y,Y,Y
金山區,208002,"金山2路線 晚上1",44,中華路152巷口(豪門金星),金美里,121.632965,25.221401,19:18,,,Y,Y,,Y,Y,Y,,Y,Y,,Y,Y,Y,,Y,Y,,Y,Y,Y
金山區,208002,"金山2路線 晚上1",45,中華路133號,金美里,121.633125,25.221012,19:20,,,Y,Y,,Y,Y,Y,,Y,Y,,Y,Y,Y,,Y,Y,,Y,Y,Y
金山區,208002,"金山2路線 晚上1",46,中華路122巷口,金美里,121.633385,25.220572,19:21,,,Y,Y,,Y,Y,Y,,Y,Y,,Y,Y,Y,,Y,Y,,Y,Y,Y
金山區,208002,"金山2路線 晚上1",47,中華路115號,金美里,121.633469,25.220427,19:21,,,Y,Y,,Y,Y,Y,,Y,Y,,Y,Y,Y,,Y,Y,,Y,Y,Y
金山區,208002,"金山2路線 晚上1",48,中華路112巷口,金美里,121.633606,25.220285,19:22,,,Y,Y,,Y,Y,Y,,Y,Y,,Y,Y,Y,,Y,Y,,Y,Y,Y
金山區,208002,"金山2路線 晚上1",49,中華路102巷口,金美里,121.633926,25.220171,19:23,,,Y,Y,,Y,Y,Y,,Y,Y,,Y,Y,Y,,Y,Y,,Y,Y,Y
金山區,208002,"金山2路線 晚上1",50,中華路67巷17號,金美里,121.634995,25.220572,19:24,,,Y,Y,,Y,Y,Y,,Y,Y,,Y,Y,Y,,Y,Y,,Y,Y,Y
金山區,208002,"金山2路線 晚上1",51,仁愛路55號,金美里,121.6353,25.220699,19:25,,,Y,Y,,Y,Y,Y,,Y,Y,,Y,Y,Y,,Y,Y,,Y,Y,Y
金山區,208002,"金山2路線 晚上1",52,仁愛路78巷口,金美里,121.634537,25.221655,19:27,,,Y,Y,,Y,Y,Y,,Y,Y,,Y,Y,Y,,Y,Y,,Y,Y,Y
金山區,208002,"金山2路線 晚上1",53,中山路313巷,美田里,121.635727,25.223745,19:32,,,Y,Y,,Y,Y,Y,,Y,Y,,Y,Y,Y,,Y,Y,,Y,Y,Y
金山區,208002,"金山2路線 晚上1",54,四維路,美田里,121.635378246696,25.2225724249429,19:35,,,Y,Y,,Y,Y,Y,,Y,Y,,Y,Y,Y,,Y,Y,,Y,Y,Y
金山區,208002,"金山2路線 晚上1",55,三民街,美田里,121.634812449073,25.2224755035073,19:37,,,Y,Y,,Y,Y,Y,,Y,Y,,Y,Y,Y,,Y,Y,,Y,Y,Y
金山區,208002,"金山2路線 晚上1",56,三民街與四維路交叉路口,美田里,121.634752521495,25.2228712056454,19:38,,,Y,Y,,Y,Y,Y,,Y,Y,,Y,Y,Y,,Y,Y,,Y,Y,Y
金山區,208002,"金山2路線 晚上1",57,三民街34號(八德街圓環),美田里,121.634892063823,25.223516,19:39,,,Y,Y,,Y,Y,Y,,Y,Y,,Y,Y,Y,,Y,Y,,Y,Y,Y
金山區,208002,"金山2路線 晚上1",58,中山路319號(八德街),美田里,121.635384,25.223896,19:43,,,Y,Y,,Y,Y,Y,,Y,Y,,Y,Y,Y,,Y,Y,,Y,Y,Y
金山區,208002,"金山2路線 晚上1",59,中華路368號(天長地久),美田里,121.633286,25.224556,19:47,,,Y,Y,,Y,Y,Y,,Y,Y,,Y,Y,Y,,Y,Y,,Y,Y,Y
金山區,208002,"金山2路線 晚上1",60,環金路251號(漁路小棧),五湖里,121.632072,25.220613,19:53,,,Y,Y,,Y,Y,Y,,Y,Y,,Y,Y,Y,,Y,Y,,Y,Y,Y
金山區,208002,"金山2路線 晚上1",61,環金路201號(勝峰輪胎),五湖里,121.633232,25.218901,19:54,2025通報,,Y,Y,,Y,Y,Y,,Y,Y,,Y,Y,Y,,Y,Y,,Y,Y,Y
金山區,208002,"金山2路線 晚上1",62,環金路89號,五湖里,121.636703,25.217308,19:55,,,Y,Y,,Y,Y,Y,,Y,Y,,Y,Y,Y,,Y,Y,,Y,Y,Y
金山區,208002,"金山2路線 晚上1",63,環金路69號,五湖里,121.638031,25.2174,19:56,2025通報,,Y,Y,,Y,Y,Y,,Y,Y,,Y,Y,Y,,Y,Y,,Y,Y,Y
金山區,208002,"金山2路線 晚上1",64,環金路21號,五湖里,121.640144,25.21755,19:58,,,Y,Y,,Y,Y,Y,,Y,Y,,Y,Y,Y,,Y,Y,,Y,Y,Y
金山區,208002,"金山2路線 晚上1",65,中山路5之1號(大豐汽車),五湖里,121.64209,25.216888,19:59,,,Y,Y,,Y,Y,Y,,Y,Y,,Y,Y,Y,,Y,Y,,Y,Y,Y
金山區,208002,"金山2路線 晚上1",66,環金路76號,五湖里,121.638741,25.217405,20:00,2025通報,,Y,Y,,Y,Y,Y,,Y,Y,,Y,Y,Y,,Y,Y,,Y,Y,Y
金山區,208002,"金山2路線 晚上1",67,環金路108號,五湖里,121.637497,25.217545,20:01,2025通報,,Y,Y,,Y,Y,Y,,Y,Y,,Y,Y,Y,,Y,Y,,Y,Y,Y
金山區,208002,"金山2路線 晚上1",68,環金路286號(藝軒),金美里,121.63308793254,25.2194477912299,20:01,2025通報,,Y,Y,,Y,Y,Y,,Y,Y,,Y,Y,Y,,Y,Y,,Y,Y,Y
金山區,208002,"金山2路線 晚上1",69,環金路336號,金美里,121.63208446627,25.2210325303275,20:01,2025通報,,Y,Y,,Y,Y,Y,,Y,Y,,Y,Y,Y,,Y,Y,,Y,Y,Y
金山區,208002,"金山2路線 晚上1",70,環金路378號,美田里,121.631621746032,25.2225084556802,20:02,2025通報,,Y,Y,,Y,Y,Y,,Y,Y,,Y,Y,Y,,Y,Y,,Y,Y,Y
金山區,208002,"金山2路線 晚上1",71,環金路462號(農會加油站),美田里,121.631605652778,25.2225327205423,20:02,2025通報,,Y,Y,,Y,Y,Y,,Y,Y,,Y,Y,Y,,Y,Y,,Y,Y,Y
金山區,208003,"金山3路線 晚上1",1,磺港路237號,磺港里,121.643623,25.225662,17:55,,,Y,Y,,Y,Y,Y,,Y,Y,,Y,Y,Y,,Y,Y,,Y,Y,Y
金山區,208003,"金山3路線 晚上1",2,磺港路306號路口,磺港里,121.643837,25.227152,17:57,,,Y,Y,,Y,Y,Y,,Y,Y,,Y,Y,Y,,Y,Y,,Y,Y,Y
金山區,208003,"金山3路線 晚上1",3,磺港路195號路口,磺港里,121.645134,25.227551,17:59,,,Y,Y,,Y,Y,Y,,Y,Y,,Y,Y,Y,,Y,Y,,Y,Y,Y
金山區,208003,"金山3路線 晚上1",4,磺港路192號路口(鈞具行),磺港里,121.646049,25.227619,18:01,,,Y,Y,,Y,Y,Y,,Y,Y,,Y,Y,Y,,Y,Y,,Y,Y,Y
金山區,208003,"金山3路線 晚上1",5,磺港路48號路口,磺港里,121.649132,25.229221,18:03,,,Y,Y,,Y,Y,Y,,Y,Y,,Y,Y,Y,,Y,Y,,Y,Y,Y
金山區,208003,"金山3路線 晚上1",6,磺港路25號之3號路口(漁會油庫),磺港里,121.649635,25.229586,18:04,2025通報,,Y,Y,,Y,Y,Y,,Y,Y,,Y,Y,Y,,Y,Y,,Y,Y,Y
金山區,208003,"金山3路線 晚上1",7,磺港路11號,磺港里,121.649643,25.230503,18:05,,,Y,Y,,Y,Y,Y,,Y,Y,,Y,Y,Y,,Y,Y,,Y,Y,Y
金山區,208003,"金山3路線 晚上1",8,民生路23號,豐漁里,121.643646,25.221445,18:09,2025通報,,Y,Y,,Y,Y,Y,,Y,Y,,Y,Y,Y,,Y,Y,,Y,Y,Y
金山區,208003,"金山3路線 晚上1",9,民生路200號對面,豐漁里,121.644691,25.221928,18:10,2025通報,,Y,Y,,Y,Y,Y,,Y,Y,,Y,Y,Y,,Y,Y,,Y,Y,Y
金山區,208003,"金山3路線 晚上1",10,民生路4號(漁村海鮮),豐漁里,121.649681,25.224756,18:11,,,Y,Y,,Y,Y,Y,,Y,Y,,Y,Y,Y,,Y,Y,,Y,Y,Y
金山區,208003,"金山3路線 晚上1",11,民生路64號,豐漁里,121.64901,25.223972,18:13,,,Y,Y,,Y,Y,Y,,Y,Y,,Y,Y,Y,,Y,Y,,Y,Y,Y
金山區,208003,"金山3路線 晚上1",12,民生路128號路口,豐漁里,121.647491,25.223669,18:15,,,Y,Y,,Y,Y,Y,,Y,Y,,Y,Y,Y,,Y,Y,,Y,Y,Y
金山區,208003,"金山3路線 晚上1",13,豐漁社區活動中心,豐漁里,121.646713,25.222807,18:16,,,Y,Y,,Y,Y,Y,,Y,Y,,Y,Y,Y,,Y,Y,,Y,Y,Y
金山區,208003,"金山3路線 晚上1",14,民生路196號(總督溫泉),豐漁里,121.645653,25.221775,18:17,,,Y,Y,,Y,Y,Y,,Y,Y,,Y,Y,Y,,Y,Y,,Y,Y,Y
金山區,208003,"金山3路線 晚上1",15,民生路51巷1號對面(中興路褔華海鮮),豐漁里,121.641949626983,25.2202485877493,18:19,2025通報,,Y,Y,,Y,Y,Y,,Y,Y,,Y,Y,Y,,Y,Y,,Y,Y,Y
金山區,208003,"金山3路線 晚上1",16,中山路102號(德安堂),和平里,121.639984,25.219149,18:22,,,Y,Y,,Y,Y,Y,,Y,Y,,Y,Y,Y,,Y,Y,,Y,Y,Y
金山區,208003,"金山3路線 晚上1",17,中山路與民生路口(85℃),和平里,121.639771,25.219374,18:22,2025通報,,Y,Y,,Y,Y,Y,,Y,Y,,Y,Y,Y,,Y,Y,,Y,Y,Y
金山區,208003,"金山3路線 晚上1",18,中山路與慈護街口,金美里,121.639435,25.219749,18:23,,,Y,Y,,Y,Y,Y,,Y,Y,,Y,Y,Y,,Y,Y,,Y,Y,Y
金山區,208003,"金山3路線 晚上1",19,中山路156號(淡水一信),金美里,121.638649,25.220732,18:26,,,Y,Y,,Y,Y,Y,,Y,Y,,Y,Y,Y,,Y,Y,,Y,Y,Y
金山區,208003,"金山3路線 晚上1",20,中山路166號,金美里,121.638466,25.220947,18:26,,,Y,Y,,Y,Y,Y,,Y,Y,,Y,Y,Y,,Y,Y,,Y,Y,Y
金山區,208003,"金山3路線 晚上1",21,中山路192號(市場口),金美里,121.63781,25.221542,18:28,,,Y,Y,,Y,Y,Y,,Y,Y,,Y,Y,Y,,Y,Y,,Y,Y,Y
金山區,208003,"金山3路線 晚上1",22,中山路226號,金美里,121.637436,25.221857,18:29,,,Y,Y,,Y,Y,Y,,Y,Y,,Y,Y,Y,,Y,Y,,Y,Y,Y
金山區,208003,"金山3路線 晚上1",23,中山路232號(農會超市),金美里,121.637016,25.222221,18:30,,,Y,Y,,Y,Y,Y,,Y,Y,,Y,Y,Y,,Y,Y,,Y,Y,Y
金山區,208003,"金山3路線 晚上1",24,金山國小(中山路),美田里,121.636283798776,25.2230719706576,18:30,2025通報,,Y,Y,,Y,Y,Y,,Y,Y,,Y,Y,Y,,Y,Y,,Y,Y,Y
金山區,208003,"金山3路線 晚上1",25,中山路250號(全家),美田里,121.635691031911,25.2238551322985,18:31,,,Y,Y,,Y,Y,Y,,Y,Y,,Y,Y,Y,,Y,Y,,Y,Y,Y
金山區,208003,"金山3路線 晚上1",26,中山路268號,美田里,121.63534271412,25.2241261984076,18:33,,,Y,Y,,Y,Y,Y,,Y,Y,,Y,Y,Y,,Y,Y,,Y,Y,Y
金山區,208003,"金山3路線 晚上1",27,中山路280號(水漫波),美田里,121.635157119049,25.2242344858132,18:34,,,Y,Y,,Y,Y,Y,,Y,Y,,Y,Y,Y,,Y,Y,,Y,Y,Y
金山區,208003,"金山3路線 晚上1",28,中山路296號(真耶穌教會),美田里,121.634520752149,25.2246255437788,18:36,,,Y,Y,,Y,Y,Y,,Y,Y,,Y,Y,Y,,Y,Y,,Y,Y,Y
金山區,208003,"金山3路線 晚上1",29,中山路320號,美田里,121.634011093254,25.2249425436966,18:37,,,Y,Y,,Y,Y,Y,,Y,Y,,Y,Y,Y,,Y,Y,,Y,Y,Y
金山區,208003,"金山3路線 晚上1",30,中山路與文化三路口,美田里,121.633712442956,25.2251369339151,18:37,,,Y,Y,,Y,Y,Y,,Y,Y,,Y,Y,Y,,Y,Y,,Y,Y,Y
金山區,208003,"金山3路線 晚上1",31,中山路350巷口,美田里,121.633359358301,25.2253748017818,18:40,,,Y,Y,,Y,Y,Y,,Y,Y,,Y,Y,Y,,Y,Y,,Y,Y,Y
金山區,208003,"金山3路線 晚上1",32,中山路401號(第一大樓),美田里,121.633308,25.225332,18:44,,,Y,Y,,Y,Y,Y,,Y,Y,,Y,Y,Y,,Y,Y,,Y,Y,Y
金山區,208003,"金山3路線 晚上1",33,翡翠屋公寓,美田里,121.634462588954,25.2245623901009,18:50,2025通報,,Y,Y,,Y,Y,Y,,Y,Y,,Y,Y,Y,,Y,Y,,Y,Y,Y
金山區,208003,"金山3路線 晚上1",34,中山路343巷口,美田里,121.635034139881,25.2242081916044,18:51,,,Y,Y,,Y,Y,Y,,Y,Y,,Y,Y,Y,,Y,Y,,Y,Y,Y
金山區,208003,"金山3路線 晚上1",35,中山路313巷口(豪爾書紡),美田里,121.635719,25.223738,18:52,,,Y,Y,,Y,Y,Y,,Y,Y,,Y,Y,Y,,Y,Y,,Y,Y,Y
金山區,208003,"金山3路線 晚上1",36,中山路295巷口,美田里,121.635954860118,25.2233604559012,18:53,,,Y,Y,,Y,Y,Y,,Y,Y,,Y,Y,Y,,Y,Y,,Y,Y,Y
金山區,208003,"金山3路線 晚上1",37,中山路279巷口(民眾服務站),美田里,121.63623064418,25.2230011835702,18:53,,,Y,Y,,Y,Y,Y,,Y,Y,,Y,Y,Y,,Y,Y,,Y,Y,Y
金山區,208003,"金山3路線 晚上1",38,中正路22巷口(萊爾富),美田里,121.636041227018,25.2222846543007,18:56,,,Y,Y,,Y,Y,Y,,Y,Y,,Y,Y,Y,,Y,Y,,Y,Y,Y
金山區,208003,"金山3路線 晚上1",39,中正路40號(悟饕),美田里,121.635228364418,25.2221279483088,18:57,,,Y,Y,,Y,Y,Y,,Y,Y,,Y,Y,Y,,Y,Y,,Y,Y,Y
金山區,208003,"金山3路線 晚上1",40,臺電服務站(中正路),美田里,121.634491,25.221979,18:59,,,Y,Y,,Y,Y,Y,,Y,Y,,Y,Y,Y,,Y,Y,,Y,Y,Y
金山區,208003,"金山3路線 晚上1",41,中正路102號(薰衣草),美田里,121.63319545519,25.2217321842831,19:01,,,Y,Y,,Y,Y,Y,,Y,Y,,Y,Y,Y,,Y,Y,,Y,Y,Y
金山區,208003,"金山3路線 晚上1",42,中正路120號,美田里,121.632494023313,25.2215835156499,19:02,,,Y,Y,,Y,Y,Y,,Y,Y,,Y,Y,Y,,Y,Y,,Y,Y,Y
金山區,208003,"金山3路線 晚上1",43,中正路134號(富凱輪胎),美田里,121.632028877315,25.2214975675236,19:03,,,Y,Y,,Y,Y,Y,,Y,Y,,Y,Y,Y,,Y,Y,,Y,Y,Y
金山區,208003,"金山3路線 晚上1",44,中正路141巷口,金美里,121.632306766864,25.2214942650692,19:04,,,Y,Y,,Y,Y,Y,,Y,Y,,Y,Y,Y,,Y,Y,,Y,Y,Y
金山區,208003,"金山3路線 晚上1",45,中正路95號,金美里,121.633189976686,25.2216708385303,19:08,2025通報,,Y,Y,,Y,Y,Y,,Y,Y,,Y,Y,Y,,Y,Y,,Y,Y,Y
金山區,208003,"金山3路線 晚上1",46,中正路77號,金美里,121.633537,25.221739,19:08,2025通報,,Y,Y,,Y,Y,Y,,Y,Y,,Y,Y,Y,,Y,Y,,Y,Y,Y
金山區,208003,"金山3路線 晚上1",47,超翊便利商店(中正路),金美里,121.633979148479,25.2218198674997,19:08,,,Y,Y,,Y,Y,Y,,Y,Y,,Y,Y,Y,,Y,Y,,Y,Y,Y
金山區,208003,"金山3路線 晚上1",48,中正路與仁愛路口,金美里,121.634400341104,25.2218984700373,19:09,,,Y,Y,,Y,Y,Y,,Y,Y,,Y,Y,Y,,Y,Y,,Y,Y,Y
金山區,208003,"金山3路線 晚上1",49,天主堂(中正路),金美里,121.635627678573,25.2221223231131,19:10,2025通報,,Y,Y,,Y,Y,Y,,Y,Y,,Y,Y,Y,,Y,Y,,Y,Y,Y
金山區,208003,"金山3路線 晚上1",50,金山區公所,金美里,121.636720186508,25.2223525285569,19:11,,,Y,Y,,Y,Y,Y,,Y,Y,,Y,Y,Y,,Y,Y,,Y,Y,Y
金山區,208003,"金山3路線 晚上1",51,中山路255號,金美里,121.636931906745,25.2221679403091,19:11,,,Y,Y,,Y,Y,Y,,Y,Y,,Y,Y,Y,,Y,Y,,Y,Y,Y
金山區,208003,"金山3路線 晚上1",52,和平街口,金美里,121.637193542327,25.2219457931234,19:12,,,Y,Y,,Y,Y,Y,,Y,Y,,Y,Y,Y,,Y,Y,,Y,Y,Y
金山區,208003,"金山3路線 晚上1",53,中山路227巷口,金美里,121.637526999999,25.2216573808936,19:12,,,Y,Y,,Y,Y,Y,,Y,Y,,Y,Y,Y,,Y,Y,,Y,Y,Y
金山區,208003,"金山3路線 晚上1",54,中山路與信義路口(西瓜巷),金美里,121.637856542327,25.2213980577782,19:13,,,Y,Y,,Y,Y,Y,,Y,Y,,Y,Y,Y,,Y,Y,,Y,Y,Y
金山區,208003,"金山3路線 晚上1",55,中山路191號(阿市旦仔麵),金美里,121.638142720237,25.2211063515634,19:14,,,Y,Y,,Y,Y,Y,,Y,Y,,Y,Y,Y,,Y,Y,,Y,Y,Y
金山區,208003,"金山3路線 晚上1",56,中山路181號(宜成鐘錶),金美里,121.638516720237,25.2207522043773,19:15,,,Y,Y,,Y,Y,Y,,Y,Y,,Y,Y,Y,,Y,Y,,Y,Y,Y
金山區,208003,"金山3路線 晚上1",57,中山路167巷口,金美里,121.638676720237,25.2205679103622,19:16,,,Y,Y,,Y,Y,Y,,Y,Y,,Y,Y,Y,,Y,Y,,Y,Y,Y
金山區,208003,"金山3路線 晚上1",58,中山路與仁愛路口,金美里,121.638863542327,25.2203070857675,19:17,2025通報,,Y,Y,,Y,Y,Y,,Y,Y,,Y,Y,Y,,Y,Y,,Y,Y,Y
金山區,208003,"金山3路線 晚上1",59,中山路119巷口,金美里,121.639389,25.219715,19:18,,,Y,Y,,Y,Y,Y,,Y,Y,,Y,Y,Y,,Y,Y,,Y,Y,Y
金山區,208003,"金山3路線 晚上1",60,忠孝一路38巷口,金美里,121.637984746032,25.2200290570136,19:20,,,Y,Y,,Y,Y,Y,,Y,Y,,Y,Y,Y,,Y,Y,,Y,Y,Y
金山區,208003,"金山3路線 晚上1",61,忠孝一路與褔德街口,金美里,121.637652970569,25.2203453367751,19:21,,,Y,Y,,Y,Y,Y,,Y,Y,,Y,Y,Y,,Y,Y,,Y,Y,Y
金山區,208003,"金山3路線 晚上1",62,忠孝一路與信義路口(西瓜巷口),金美里,121.63707,25.220875,19:22,,,Y,Y,,Y,Y,Y,,Y,Y,,Y,Y,Y,,Y,Y,,Y,Y,Y
金山區,208003,"金山3路線 晚上1",63,忠孝一路86號,金美里,121.636749,25.221189,19:23,,,Y,Y,,Y,Y,Y,,Y,Y,,Y,Y,Y,,Y,Y,,Y,Y,Y
金山區,208003,"金山3路線 晚上1",64,忠孝一路與和平街口(許氏祖廟),金美里,121.636482,25.221472,19:24,,,Y,Y,,Y,Y,Y,,Y,Y,,Y,Y,Y,,Y,Y,,Y,Y,Y
金山區,208003,"金山3路線 晚上1",65,仁愛路64巷口(金美國小),金美里,121.635056,25.221132,19:30,,,Y,Y,,Y,Y,Y,,Y,Y,,Y,Y,Y,,Y,Y,,Y,Y,Y
金山區,208003,"金山3路線 晚上1",66,仁愛路61號(法鼓山社會大學),金美里,121.635094,25.220922,19:31,,,Y,Y,,Y,Y,Y,,Y,Y,,Y,Y,Y,,Y,Y,,Y,Y,Y
金山區,208003,"金山3路線 晚上1",67,仁愛路與中華路口,金美里,121.635269,25.220728,19:31,,,Y,Y,,Y,Y,Y,,Y,Y,,Y,Y,Y,,Y,Y,,Y,Y,Y
金山區,208003,"金山3路線 晚上1",68,仁愛路37之7號,金美里,121.635651,25.220308,19:31,,,Y,Y,,Y,Y,Y,,Y,Y,,Y,Y,Y,,Y,Y,,Y,Y,Y
金山區,208003,"金山3路線 晚上1",69,仁愛路與信義路口,金美里,121.635864,25.220074,19:32,,,Y,Y,,Y,Y,Y,,Y,Y,,Y,Y,Y,,Y,Y,,Y,Y,Y
金山區,208003,"金山3路線 晚上1",70,仁愛路37號,金美里,121.636322,25.219593,19:33,,,Y,Y,,Y,Y,Y,,Y,Y,,Y,Y,Y,,Y,Y,,Y,Y,Y
金山區,208003,"金山3路線 晚上1",71,仁愛路35號,金美里,121.636637930059,25.2192722415658,19:34,,,Y,Y,,Y,Y,Y,,Y,Y,,Y,Y,Y,,Y,Y,,Y,Y,Y
金山區,208003,"金山3路線 晚上1",72,仁愛路23號,金美里,121.637208341104,25.2191198432294,19:35,,,Y,Y,,Y,Y,Y,,Y,Y,,Y,Y,Y,,Y,Y,,Y,Y,Y
金山區,208003,"金山3路線 晚上1",73,仁愛路17號,金美里,121.637564504299,25.2192290565667,19:35,,,Y,Y,,Y,Y,Y,,Y,Y,,Y,Y,Y,,Y,Y,,Y,Y,Y
金山區,208003,"金山3路線 晚上1",74,仁愛路11號,金美里,121.63801946627,25.2195463505676,19:36,,,Y,Y,,Y,Y,Y,,Y,Y,,Y,Y,Y,,Y,Y,,Y,Y,Y
金山區,208003,"金山3路線 晚上1",75,仁愛路1巷口(慈惠宮),金美里,121.638503148479,25.2199188200839,19:38,,,Y,Y,,Y,Y,Y,,Y,Y,,Y,Y,Y,,Y,Y,,Y,Y,Y
金山區,208003,"金山3路線 晚上1",76,海興路10號(淡金公路),萬壽里,121.630129474868,25.2370577235469,19:48,2025通報,,Y,Y,,Y,Y,Y,,Y,Y,,Y,Y,Y,,Y,Y,,Y,Y,Y
金山區,208003,"金山3路線 晚上1",77,海興路18號(淡金公路),萬壽里,121.630376847885,25.2374374762387,19:48,2025通報,,Y,Y,,Y,Y,Y,,Y,Y,,Y,Y,Y,,Y,Y,,Y,Y,Y
金山區,208003,"金山3路線 晚上1",78,海興路112號(淡金公路),萬壽里,121.631358119049,25.23868924885,19:49,2025通報,,Y,Y,,Y,Y,Y,,Y,Y,,Y,Y,Y,,Y,Y,,Y,Y,Y
金山區,208003,"金山3路線 晚上1",79,海興路132號(淡金公路),萬壽里,121.632379474868,25.2394591357769,19:50,2025通報,,Y,Y,,Y,Y,Y,,Y,Y,,Y,Y,Y,,Y,Y,,Y,Y,Y
金山區,208003,"金山3路線 晚上1",80,海興路172號(金饌),萬壽里,121.632892661376,25.2399127726745,19:50,,,Y,Y,,Y,Y,Y,,Y,Y,,Y,Y,Y,,Y,Y,,Y,Y,Y
金山區,208003,"金山3路線 晚上1",81,北海岸咖啡(淡金公路),萬壽里,121.633361322753,25.2404710451585,19:51,2025通報,,Y,Y,,Y,Y,Y,,Y,Y,,Y,Y,Y,,Y,Y,,Y,Y,Y
金山區,208003,"金山3路線 晚上1",82,忠義路39之1號(洋荳子),永興里,121.630646,25.263542,19:54,2025通報,,Y,Y,,Y,Y,Y,,Y,Y,,Y,Y,Y,,Y,Y,,Y,Y,Y
金山區,208003,"金山3路線 晚上1",83,中角派出所(淡金公路),永興里,121.629395,25.265261,19:56,2025通報,,Y,Y,,Y,Y,Y,,Y,Y,,Y,Y,Y,,Y,Y,,Y,Y,Y
金山區,208003,"金山3路線 晚上1",84,濆水8號(淡金公路),永興里,121.623740262565,25.271199022301,19:56,2025通報,,Y,Y,,Y,Y,Y,,Y,Y,,Y,Y,Y,,Y,Y,,Y,Y,Y
金山區,208003,"金山3路線 晚上1",85,濆水13號路口(淡金公路),永興里,121.626726440475,25.268493232972,19:58,,,Y,Y,,Y,Y,Y,,Y,Y,,Y,Y,Y,,Y,Y,,Y,Y,Y
金山區,208003,"金山3路線 晚上1",86,忠義路30號(淡金公路),永興里,121.631548440475,25.2613351886247,19:59,2025通報,,Y,Y,,Y,Y,Y,,Y,Y,,Y,Y,Y,,Y,Y,,Y,Y,Y
金山區,208003,"金山3路線 晚上1",87,忠義路2號(阿秀海鮮),永興里,121.632329813491,25.2600552676227,20:00,2025通報,,Y,Y,,Y,Y,Y,,Y,Y,,Y,Y,Y,,Y,Y,,Y,Y,Y
金山區,208003,"金山3路線 晚上1",88,香?園1號(我的太陽),萬壽里,121.634392,25.247791,20:01,2025通報,,Y,Y,,Y,Y,Y,,Y,Y,,Y,Y,Y,,Y,Y,,Y,Y,Y
金山區,208003,"金山3路線 晚上1",89,海興路85之3號(淡金公路),萬壽里,121.633095,25.24053,20:03,2025通報,,Y,Y,,Y,Y,Y,,Y,Y,,Y,Y,Y,,Y,Y,,Y,Y,Y
金山區,208003,"金山3路線 晚上1",90,海興路41之1號(檳榔攤),萬壽里,121.630981,25.238594,20:05,2025通報,,Y,Y,,Y,Y,Y,,Y,Y,,Y,Y,Y,,Y,Y,,Y,Y,Y
金山區,208003,"金山3路線 晚上1",91,海興路41號(淡金公路),萬壽里,121.630692,25.238239,20:05,2025通報,,Y,Y,,Y,Y,Y,,Y,Y,,Y,Y,Y,,Y,Y,,Y,Y,Y
金山區,208003,"金山3路線 晚上1",92,海興路29號(回收場),萬壽里,121.630089,25.237387,20:06,2025通報,,Y,Y,,Y,Y,Y,,Y,Y,,Y,Y,Y,,Y,Y,,Y,Y,Y
金山區,208003,"金山3路線 晚上1",93,法鼓山路口(淡金公路),萬壽里,121.629562,25.236595,20:07,2025通報,,Y,Y,,Y,Y,Y,,Y,Y,,Y,Y,Y,,Y,Y,,Y,Y,Y
板橋區,220001,A01路線下午,1,民生路二段80號,玉光里,121.471703,25.018269,13:45,,,Y,Y,,Y,Y,Y,,Y,Y,,Y,Y,Y,,Y,Y,,Y,Y,Y
板橋區,220001,A01路線下午,2,永豐街55巷38號,玉光里,121.472313,25.018391,13:45,,,Y,Y,,Y,Y,Y,,Y,Y,,Y,Y,Y,,Y,Y,,Y,Y,Y
板橋區,220001,A01路線下午,3,永豐街75巷46號,玉光里,121.472755,25.018576,13:46,,,Y,Y,,Y,Y,Y,,Y,Y,,Y,Y,Y,,Y,Y,,Y,Y,Y
板橋區,220001,A01路線下午,4,永豐街75巷18號,玉光里,121.472969,25.018822,13:47,,,Y,Y,,Y,Y,Y,,Y,Y,,Y,Y,Y,,Y,Y,,Y,Y,Y
板橋區,220001,A01路線下午,5,成功路39號,光仁里,121.475082,25.017645,13:48,,,Y,Y,,Y,Y,Y,,Y,Y,,Y,Y,Y,,Y,Y,,Y,Y,Y
板橋區,220001,A01路線下午,6,成功路23號,光仁里,121.47525,25.017334,13:49,,,Y,Y,,Y,Y,Y,,Y,Y,,Y,Y,Y,,Y,Y,,Y,Y,Y
板橋區,220001,A01路線下午,7,成功路8號,光仁里,121.475441,25.016998,13:50,,,Y,Y,,Y,Y,Y,,Y,Y,,Y,Y,Y,,Y,Y,,Y,Y,Y
板橋區,220001,A01路線下午,8,中山路二段89巷16號,玉光里,121.473938,25.016396,13:51,,,Y,Y,,Y,Y,Y,,Y,Y,,Y,Y,Y,,Y,Y,,Y,Y,Y
板橋區,220001,A01路線下午,9,中山路二段89巷42號,玉光里,121.473763,25.017006,13:52,,,Y,Y,,Y,Y,Y,,Y,Y,,Y,Y,Y,,Y,Y,,Y,Y,Y
板橋區,220001,A01路線下午,10,中山路二段89巷58號,玉光里,121.473686,25.017321,13:53,,,Y,Y,,Y,Y,Y,,Y,Y,,Y,Y,Y,,Y,Y,,Y,Y,Y
板橋區,220001,A01路線下午,11,中山路二段89巷66號,玉光里,121.473625,25.017578,13:54,,,Y,Y,,Y,Y,Y,,Y,Y,,Y,Y,Y,,Y,Y,,Y,Y,Y
板橋區,220001,A01路線下午,12,永豐街89巷3弄口,廣新里,121.473427,25.019329,13:55,,,Y,Y,,Y,Y,Y,,Y,Y,,Y,Y,Y,,Y,Y,,Y,Y,Y
板橋區,220001,A01路線下午,13,永豐街89巷5弄口,廣新里,121.473213,25.019566,13:56,,,Y,Y,,Y,Y,Y,,Y,Y,,Y,Y,Y,,Y,Y,,Y,Y,Y
板橋區,220001,A01路線下午,14,太和街5巷1號,廣新里,121.473671,25.019915,13:57,,,Y,Y,,Y,Y,Y,,Y,Y,,Y,Y,Y,,Y,Y,,Y,Y,Y
板橋區,220001,A01路線下午,15,太和街3巷1號,廣新里,121.473915,25.019701,13:58,,,Y,Y,,Y,Y,Y,,Y,Y,,Y,Y,Y,,Y,Y,,Y,Y,Y
板橋區,220001,A01路線下午,16,永豐街113號,廣新里,121.47428112153,25.0195053432738,14:00,,,Y,Y,,Y,Y,Y,,Y,Y,,Y,Y,Y,,Y,Y,,Y,Y,Y
板橋區,220001,A01路線下午,17,懷仁街14巷2號,光仁里,121.47599639,25.019818406,14:03,站序修正,,Y,Y,,Y,Y,Y,,Y,Y,,Y,Y,Y,,Y,Y,,Y,Y,Y
板橋區,220001,A01路線下午,18,懷仁街14巷26號,光仁里,121.4755575,25.019556221,14:04,站序修正,,Y,Y,,Y,Y,Y,,Y,Y,,Y,Y,Y,,Y,Y,,Y,Y,Y
板橋區,220001,A01路線下午,19,懷仁街24巷23號,光仁里,121.475647,25.019278,14:06,站序修正,,Y,Y,,Y,Y,Y,,Y,Y,,Y,Y,Y,,Y,Y,,Y,Y,Y
板橋區,220001,A01路線下午,20,懷仁街34巷23號,光仁里,121.47627,25.019409,14:07,站序修正,,Y,Y,,Y,Y,Y,,Y,Y,,Y,Y,Y,,Y,Y,,Y,Y,Y
板橋區,220001,A01路線下午,21,懷仁街35巷5號,光仁里,121.476799,25.019611,14:08,站序修正,,Y,Y,,Y,Y,Y,,Y,Y,,Y,Y,Y,,Y,Y,,Y,Y,Y
板橋區,220001,A01路線下午,22,懷仁街35巷13號,光仁里,121.477135,25.019817,14:08,站序修正,,Y,Y,,Y,Y,Y,,Y,Y,,Y,Y,Y,,Y,Y,,Y,Y,Y
板橋區,220001,A01路線下午,23,懷仁街25巷13號,光仁里,121.476883,25.020018,14:09,站序修正,,Y,Y,,Y,Y,Y,,Y,Y,,Y,Y,Y,,Y,Y,,Y,Y,Y
板橋區,220001,A01路線下午,24,懷仁街25巷3號,光仁里,121.476624,25.019869,14:09,站序修正,,Y,Y,,Y,Y,Y,,Y,Y,,Y,Y,Y,,Y,Y,,Y,Y,Y
板橋區,220001,A01路線下午,25,富山街53巷72號,雙玉里,121.477348,25.020107,14:10,站序修正,,Y,Y,,Y,Y,Y,,Y,Y,,Y,Y,Y,,Y,Y,,Y,Y,Y
板橋區,220001,A01路線下午,26,富山街53巷60號,雙玉里,121.477409,25.020407,14:11,站序修正,,Y,Y,,Y,Y,Y,,Y,Y,,Y,Y,Y,,Y,Y,,Y,Y,Y
板橋區,220001,A01路線下午,27,富山街53巷44號,雙玉里,121.477493,25.020769,14:11,站序修正,,Y,Y,,Y,Y,Y,,Y,Y,,Y,Y,Y,,Y,Y,,Y,Y,Y
板橋區,220001,A01路線下午,28,永豐街130號,雙玉里,121.477631,25.021261,14:12,站序修正,,Y,Y,,Y,Y,Y,,Y,Y,,Y,Y,Y,,Y,Y,,Y,Y,Y
板橋區,220001,A01路線下午,29,停整點：永豐街146號,雙玉里,121.478134,25.021215,14:13,站序修正,,Y,Y,,Y,Y,Y,,Y,Y,,Y,Y,Y,,Y,Y,,Y,Y,Y
板橋區,220001,A01路線下午,30,富山街7巷8號,雙玉里,121.478554,25.021547,14:18,站序修正,,Y,Y,,Y,Y,Y,,Y,Y,,Y,Y,Y,,Y,Y,,Y,Y,Y
板橋區,220001,A01路線下午,31,富山街10巷口,雙玉里,121.47863,25.02173,14:19,站序修正,,Y,Y,,Y,Y,Y,,Y,Y,,Y,Y,Y,,Y,Y,,Y,Y,Y
板橋區,220001,A01路線下午,32,縣民大道三段270巷12號-大樓,雙玉里,121.478493,25.022865,14:21,站序修正,,Y,Y,,Y,Y,Y,,Y,Y,,Y,Y,Y,,Y,Y,,Y,Y,Y
板橋區,220001,A01路線下午,33,富山街26號,雙玉里,121.47821,25.021782,14:23,站序修正,,Y,Y,,Y,Y,Y,,Y,Y,,Y,Y,Y,,Y,Y,,Y,Y,Y
板橋區,220001,A01路線下午,34,富山街40號,雙玉里,121.477791,25.021807,14:24,站序修正,,Y,Y,,Y,Y,Y,,Y,Y,,Y,Y,Y,,Y,Y,,Y,Y,Y
板橋區,220001,A01路線下午,35,富山街62巷口,雙玉里,121.477249,25.021841,14:24,站序修正,,Y,Y,,Y,Y,Y,,Y,Y,,Y,Y,Y,,Y,Y,,Y,Y,Y
板橋區,220001,A01路線下午,36,富山街80巷口,雙玉里,121.476723,25.02187,14:25,站序修正,,Y,Y,,Y,Y,Y,,Y,Y,,Y,Y,Y,,Y,Y,,Y,Y,Y
板橋區,220001,A01路線下午,37,富山街98號,雙玉里,121.47628,25.0219,14:26,站序修正,,Y,Y,,Y,Y,Y,,Y,Y,,Y,Y,Y,,Y,Y,,Y,Y,Y
板橋區,220001,A01路線下午,38,富山街62巷18號,雙玉里,121.477257,25.022526,14:27,站序修正,,Y,Y,,Y,Y,Y,,Y,Y,,Y,Y,Y,,Y,Y,,Y,Y,Y
板橋區,220001,A01路線下午,39,富山街71巷8號,雙玉里,121.476639,25.021593,14:28,站序修正,,Y,Y,,Y,Y,Y,,Y,Y,,Y,Y,Y,,Y,Y,,Y,Y,Y
板橋區,220001,A01路線下午,40,富山街85巷6弄口,雙玉里,121.476555,25.021137,14:29,站序修正,,Y,Y,,Y,Y,Y,,Y,Y,,Y,Y,Y,,Y,Y,,Y,Y,Y
板橋區,220001,A01路線下午,41,永豐街203號,廣新里,121.476522813491,25.0210081840407,14:29,站序修正,,Y,Y,,Y,Y,Y,,Y,Y,,Y,Y,Y,,Y,Y,,Y,Y,Y
板橋區,220001,A01路線下午,42,永豐街189號,廣新里,121.476013,25.020668,14:30,站序修正,,Y,Y,,Y,Y,Y,,Y,Y,,Y,Y,Y,,Y,Y,,Y,Y,Y
板橋區,220001,A01路線下午,43,永豐街177號,廣新里,121.475838,25.020559,14:31,站序修正,,Y,Y,,Y,Y,Y,,Y,Y,,Y,Y,Y,,Y,Y,,Y,Y,Y
板橋區,220001,A01路線下午,44,富山街53巷1弄12號,雙玉里,121.477951,25.020426,14:33,站序修正,,Y,Y,,Y,Y,Y,,Y,Y,,Y,Y,Y,,Y,Y,,Y,Y,Y
板橋區,220001,A01路線下午,45,富山街53巷1弄22號,雙玉里,121.47789,25.020275,14:34,站序修正,,Y,Y,,Y,Y,Y,,Y,Y,,Y,Y,Y,,Y,Y,,Y,Y,Y
板橋區,220001,A01路線下午,46,富山街53巷1弄36號,雙玉里,121.477791,25.019979,14:34,站序修正,,Y,Y,,Y,Y,Y,,Y,Y,,Y,Y,Y,,Y,Y,,Y,Y,Y
板橋區,220001,A01路線下午,47,富山街53巷1弄48號,雙玉里,121.477684,25.019686,14:35,站序修正,,Y,Y,,Y,Y,Y,,Y,Y,,Y,Y,Y,,Y,Y,,Y,Y,Y
板橋區,220001,A01路線下午,48,懷仁街77巷33號,光仁里,121.477715,25.019245,14:35,站序修正,,Y,Y,,Y,Y,Y,,Y,Y,,Y,Y,Y,,Y,Y,,Y,Y,Y
板橋區,220001,A01路線下午,49,懷仁街77巷15號,光仁里,121.477516,25.018703,14:36,站序修正,,Y,Y,,Y,Y,Y,,Y,Y,,Y,Y,Y,,Y,Y,,Y,Y,Y
板橋區,220001,A01路線下午,50,中山路二段148巷20號,東丘里,121.477013,25.016462,14:40,站序修正,,Y,Y,,Y,Y,Y,,Y,Y,,Y,Y,Y,,Y,Y,,Y,Y,Y
板橋區,220001,A01路線下午,51,中山路二段148巷36號,東丘里,121.477112,25.01606,14:41,站序修正,,Y,Y,,Y,Y,Y,,Y,Y,,Y,Y,Y,,Y,Y,,Y,Y,Y
板橋區,220001,A01路線下午,52,民享街63號,東丘里,121.476341,25.015299,14:43,站序修正,,Y,Y,,Y,Y,Y,,Y,Y,,Y,Y,Y,,Y,Y,,Y,Y,Y
板橋區,220001,A01路線下午,53,民享街45號,東丘里,121.475639,25.014874,14:44,站序修正,,Y,Y,,Y,Y,Y,,Y,Y,,Y,Y,Y,,Y,Y,,Y,Y,Y
板橋區,220001,A01路線下午,54,民享街23號,東丘里,121.475343790178,25.0146919856939,14:45,站序修正,,Y,Y,,Y,Y,Y,,Y,Y,,Y,Y,Y,,Y,Y,,Y,Y,Y
板橋區,220001,A01路線下午,55,民享街11號,東丘里,121.474976,25.014482,14:45,站序修正,,Y,Y,,Y,Y,Y,,Y,Y,,Y,Y,Y,,Y,Y,,Y,Y,Y
板橋區,220001,A01路線下午,56,中山路二段60巷39弄口,東丘里,121.474649300594,25.0146078322892,14:46,站序修正,,Y,Y,,Y,Y,Y,,Y,Y,,Y,Y,Y,,Y,Y,,Y,Y,Y
板橋區,220001,A01路線下午,57,中山路二段90巷40號,東丘里,121.475937,25.015289,14:47,站序修正,,Y,Y,,Y,Y,Y,,Y,Y,,Y,Y,Y,,Y,Y,,Y,Y,Y
板橋區,220001,A01路線下午,58,中山路二段90巷22號,東丘里,121.475685,25.015675,14:48,站序修正,,Y,Y,,Y,Y,Y,,Y,Y,,Y,Y,Y,,Y,Y,,Y,Y,Y
板橋區,220001,A01路線下午,59,中山路二段90巷6號,東丘里,121.475379711639,25.0160287647296,14:49,站序修正,,Y,Y,,Y,Y,Y,,Y,Y,,Y,Y,Y,,Y,Y,,Y,Y,Y
板橋區,220001,A01路線下午,60,停整點：永豐街21號,玉光里,121.474716,25.017035,14:50,站序修正,,Y,Y,,Y,Y,Y,,Y,Y,,Y,Y,Y,,Y,Y,,Y,Y,Y
板橋區,220001,A01路線下午,61,永豐街47號,玉光里,121.474312,25.017599,14:55,站序修正,,Y,Y,,Y,Y,Y,,Y,Y,,Y,Y,Y,,Y,Y,,Y,Y,Y
板橋區,220001,A01路線下午,62,永豐街57號,玉光里,121.473938,25.018263,14:55,站序修正,,Y,Y,,Y,Y,Y,,Y,Y,,Y,Y,Y,,Y,Y,,Y,Y,Y
板橋區,220001,A01路線下午,63,永豐街73號,玉光里,121.473686,25.018808,14:56,站序修正,,Y,Y,,Y,Y,Y,,Y,Y,,Y,Y,Y,,Y,Y,,Y,Y,Y
板橋區,220001,A01路線下午,64,永豐街101號,廣新里,121.473953,25.019266,14:56,站序修正,,Y,Y,,Y,Y,Y,,Y,Y,,Y,Y,Y,,Y,Y,,Y,Y,Y
板橋區,220001,A01路線下午,65,永豐街50號,廣新里,121.474693,25.019773,14:57,站序修正,,Y,Y,,Y,Y,Y,,Y,Y,,Y,Y,Y,,Y,Y,,Y,Y,Y
板橋區,220001,A01路線下午,66,永豐街64號,廣新里,121.475067,25.020004,14:58,站序修正,,Y,Y,,Y,Y,Y,,Y,Y,,Y,Y,Y,,Y,Y,,Y,Y,Y
板橋區,220001,A01路線下午,67,永豐街80號,廣新里,121.475418,25.020235,14:59,站序修正,,Y,Y,,Y,Y,Y,,Y,Y,,Y,Y,Y,,Y,Y,,Y,Y,Y
板橋區,220001,A01路線下午,68,永豐街94號,廣新里,121.475723,25.020447,15:00,站序修正,,Y,Y,,Y,Y,Y,,Y,Y,,Y,Y,Y,,Y,Y,,Y,Y,Y
板橋區,220001,A01路線下午,69,懷仁街2號,廣新里,121.475891,25.020329,15:01,站序修正,,Y,Y,,Y,Y,Y,,Y,Y,,Y,Y,Y,,Y,Y,,Y,Y,Y
板橋區,220001,A01路線下午,70,懷仁街12號,廣新里,121.47608,25.019949,15:02,站序修正,,Y,Y,,Y,Y,Y,,Y,Y,,Y,Y,Y,,Y,Y,,Y,Y,Y
板橋區,220001,A01路線下午,71,懷仁街26號,光仁里,121.476418,25.019621,15:02,站序修正,,Y,Y,,Y,Y,Y,,Y,Y,,Y,Y,Y,,Y,Y,,Y,Y,Y
板橋區,220001,A01路線下午,72,懷仁街32號,光仁里,121.476501,25.019505,15:03,站序修正,,Y,Y,,Y,Y,Y,,Y,Y,,Y,Y,Y,,Y,Y,,Y,Y,Y
板橋區,220001,A01路線下午,73,懷仁街52號,光仁里,121.476891,25.018967,15:03,站序修正,,Y,Y,,Y,Y,Y,,Y,Y,,Y,Y,Y,,Y,Y,,Y,Y,Y
板橋區,220001,A01路線下午,74,懷仁街72號,光仁里,121.477165,25.018581,15:04,站序修正,,Y,Y,,Y,Y,Y,,Y,Y,,Y,Y,Y,,Y,Y,,Y,Y,Y
板橋區,220001,A01路線下午,75,懷仁街88號,光仁里,121.477531,25.018097,15:05,站序修正,,Y,Y,,Y,Y,Y,,Y,Y,,Y,Y,Y,,Y,Y,,Y,Y,Y
板橋區,220001,A01路線下午,76,中山路二段290號,埔墘里,121.480465,25.019116,15:07,站序修正,,Y,Y,,Y,Y,Y,,Y,Y,,Y,Y,Y,,Y,Y,,Y,Y,Y
板橋區,220001,A01路線下午,77,中山路二段318巷2弄30號,埔墘里,121.48072,25.019143,15:08,站序修正,,Y,Y,,Y,Y,Y,,Y,Y,,Y,Y,Y,,Y,Y,,Y,Y,Y
板橋區,220001,A01路線下午,78,中山路二段318巷2弄16號,埔墘里,121.481022,25.019086,15:09,站序修正,,Y,Y,,Y,Y,Y,,Y,Y,,Y,Y,Y,,Y,Y,,Y,Y,Y
板橋區,220001,A01路線下午,79,中山路二段318巷2弄6號,埔墘里,121.47967,25.018793,15:10,站序修正,,Y,Y,,Y,Y,Y,,Y,Y,,Y,Y,Y,,Y,Y,,Y,Y,Y
板橋區,220002,A02路線下午,1,後埔街8號,景星里,121.460281,25.006916,13:48,,,Y,Y,,Y,Y,Y,,Y,Y,,Y,Y,Y,,Y,Y,,Y,Y,Y
板橋區,220002,A02路線下午,2,後埔街29號,景星里,121.460365,25.006392,13:49,,,Y,Y,,Y,Y,Y,,Y,Y,,Y,Y,Y,,Y,Y,,Y,Y,Y
板橋區,220002,A02路線下午,3,後埔街41號,景星里,121.460434,25.006006,13:49,,,Y,Y,,Y,Y,Y,,Y,Y,,Y,Y,Y,,Y,Y,,Y,Y,Y
板橋區,220002,A02路線下午,4,後埔街79號,景星里,121.460585303075,25.0054788616123,13:50,,,Y,Y,,Y,Y,Y,,Y,Y,,Y,Y,Y,,Y,Y,,Y,Y,Y
板橋區,220002,A02路線下午,5,重慶路139巷2號,福德里,121.462486,25.00444,13:52,,,Y,Y,,Y,Y,Y,,Y,Y,,Y,Y,Y,,Y,Y,,Y,Y,Y
板橋區,220002,A02路線下午,6,重慶路139巷6號之1,福德里,121.462746,25.004484,13:53,,,Y,Y,,Y,Y,Y,,Y,Y,,Y,Y,Y,,Y,Y,,Y,Y,Y
板橋區,220002,A02路線下午,7,重慶路139巷30號,福德里,121.463364,25.004578,13:54,,,Y,Y,,Y,Y,Y,,Y,Y,,Y,Y,Y,,Y,Y,,Y,Y,Y
板橋區,220002,A02路線下午,8,重慶路127巷口,福德里,121.463676,25.00465,13:54,,,Y,Y,,Y,Y,Y,,Y,Y,,Y,Y,Y,,Y,Y,,Y,Y,Y
板橋區,220002,A02路線下午,9,重慶路127巷19號,福德里,121.463623,25.004913,13:55,,,Y,Y,,Y,Y,Y,,Y,Y,,Y,Y,Y,,Y,Y,,Y,Y,Y
板橋區,220002,A02路線下午,10,重慶路127巷11號,福德里,121.463158,25.004845,13:55,,,Y,Y,,Y,Y,Y,,Y,Y,,Y,Y,Y,,Y,Y,,Y,Y,Y
板橋區,220002,A02路線下午,11,重慶路93巷45號-大樓,後埔里,121.463326,25.005898,13:56,,,Y,Y,,Y,Y,Y,,Y,Y,,Y,Y,Y,,Y,Y,,Y,Y,Y
板橋區,220002,A02路線下午,12,重慶路93巷23號,後埔里,121.46302,25.005846,13:58,,,Y,Y,,Y,Y,Y,,Y,Y,,Y,Y,Y,,Y,Y,,Y,Y,Y
板橋區,220002,A02路線下午,13,重慶路93巷5號,後埔里,121.462517,25.005766,13:58,,,Y,Y,,Y,Y,Y,,Y,Y,,Y,Y,Y,,Y,Y,,Y,Y,Y
板橋區,220002,A02路線下午,14,重慶路89巷4號,後埔里,121.46244,25.006369,13:59,,,Y,Y,,Y,Y,Y,,Y,Y,,Y,Y,Y,,Y,Y,,Y,Y,Y
板橋區,220002,A02路線下午,15,重慶路89巷10號,後埔里,121.462914,25.006449,14:00,,,Y,Y,,Y,Y,Y,,Y,Y,,Y,Y,Y,,Y,Y,,Y,Y,Y
板橋區,220002,A02路線下午,16,重慶路89巷37號,後埔里,121.463348,25.006519,14:00,,,Y,Y,,Y,Y,Y,,Y,Y,,Y,Y,Y,,Y,Y,,Y,Y,Y
板橋區,220002,A02路線下午,17,重慶路69巷6~20號-大樓,後埔里,121.462853,25.0070083,14:01,,,Y,Y,,Y,Y,Y,,Y,Y,,Y,Y,Y,,Y,Y,,Y,Y,Y
板橋區,220002,A02路線下午,18,重慶路69巷11號,後埔里,121.46244,25.007091,14:02,,,Y,Y,,Y,Y,Y,,Y,Y,,Y,Y,Y,,Y,Y,,Y,Y,Y
板橋區,220002,A02路線下午,19,重慶路69巷67巷口,後埔里,121.46209,25.00699,14:02,,,Y,Y,,Y,Y,Y,,Y,Y,,Y,Y,Y,,Y,Y,,Y,Y,Y
板橋區,220002,A02路線下午,20,重慶路62巷口,景星里,121.46188,25.00685,14:03,,,Y,Y,,Y,Y,Y,,Y,Y,,Y,Y,Y,,Y,Y,,Y,Y,Y
板橋區,220002,A02路線下午,21,重慶路76巷29號,景星里,121.460777,25.0061,14:04,,,Y,Y,,Y,Y,Y,,Y,Y,,Y,Y,Y,,Y,Y,,Y,Y,Y
板橋區,220002,A02路線下午,22,四川路ㄧ段197號,福星里,121.459938,25.003674,14:05,,,Y,Y,,Y,Y,Y,,Y,Y,,Y,Y,Y,,Y,Y,,Y,Y,Y
板橋區,220002,A02路線下午,23,四川路校前街口,福星里,121.4601137,25.0030238,14:05,,,Y,Y,,Y,Y,Y,,Y,Y,,Y,Y,Y,,Y,Y,,Y,Y,Y
板橋區,220002,A02路線下午,24,校前街15號,福星里,121.460602,25.00308,14:06,,,Y,Y,,Y,Y,Y,,Y,Y,,Y,Y,Y,,Y,Y,,Y,Y,Y
板橋區,220002,A02路線下午,25,校前街35號,福星里,121.460991,25.003145,14:06,,,Y,Y,,Y,Y,Y,,Y,Y,,Y,Y,Y,,Y,Y,,Y,Y,Y
板橋區,220002,A02路線下午,26,校前街66號,福星里,121.461632,25.003254,14:06,,,Y,Y,,Y,Y,Y,,Y,Y,,Y,Y,Y,,Y,Y,,Y,Y,Y
板橋區,220002,A02路線下午,27,重慶路155巷13號,福星里,121.462738,25.00396,14:07,,,Y,Y,,Y,Y,Y,,Y,Y,,Y,Y,Y,,Y,Y,,Y,Y,Y
板橋區,220002,A02路線下午,28,重慶路155巷33號,福德里,121.463333,25.004063,14:08,,,Y,Y,,Y,Y,Y,,Y,Y,,Y,Y,Y,,Y,Y,,Y,Y,Y
板橋區,220002,A02路線下午,29,重慶路155巷45號,福德里,121.463715,25.004128,14:08,,,Y,Y,,Y,Y,Y,,Y,Y,,Y,Y,Y,,Y,Y,,Y,Y,Y
板橋區,220002,A02路線下午,30,停整點:實踐路122號(後埔國小5號門前),福德里,121.4642398,25.00381699,14:09,,,Y,Y,,Y,Y,Y,,Y,Y,,Y,Y,Y,,Y,Y,,Y,Y,Y
板橋區,220002,A02路線下午,31,光明街148號,福星里,121.463921,25.003069,14:14,,,Y,Y,,Y,Y,Y,,Y,Y,,Y,Y,Y,,Y,Y,,Y,Y,Y
板橋區,220002,A02路線下午,32,光明街124號,福星里,121.463463,25.00301,14:15,,,Y,Y,,Y,Y,Y,,Y,Y,,Y,Y,Y,,Y,Y,,Y,Y,Y
板橋區,220002,A02路線下午,33,光明街112號,福星里,121.46312,25.002966,14:15,,,Y,Y,,Y,Y,Y,,Y,Y,,Y,Y,Y,,Y,Y,,Y,Y,Y
板橋區,220002,A02路線下午,34,光明街106號,福星里,121.462914,25.002939,14:15,,,Y,Y,,Y,Y,Y,,Y,Y,,Y,Y,Y,,Y,Y,,Y,Y,Y
板橋區,220002,A02路線下午,35,光明街98號,福星里,121.46283,25.002924,14:15,,,Y,Y,,Y,Y,Y,,Y,Y,,Y,Y,Y,,Y,Y,,Y,Y,Y
板橋區,220002,A02路線下午,36,光明街84號,福星里,121.462326,25.002851,14:15,,,Y,Y,,Y,Y,Y,,Y,Y,,Y,Y,Y,,Y,Y,,Y,Y,Y
板橋區,220002,A02路線下午,37,光明街68號,福星里,121.461853,25.002775,14:16,,,Y,Y,,Y,Y,Y,,Y,Y,,Y,Y,Y,,Y,Y,,Y,Y,Y
板橋區,220002,A02路線下午,38,光明街54號,福星里,121.461472,25.002708,14:17,,,Y,Y,,Y,Y,Y,,Y,Y,,Y,Y,Y,,Y,Y,,Y,Y,Y
板橋區,220002,A02路線下午,39,光明街30號,福星里,121.460831,25.002613,14:18,,,Y,Y,,Y,Y,Y,,Y,Y,,Y,Y,Y,,Y,Y,,Y,Y,Y
板橋區,220002,A02路線下午,40,光明街8-10號-大樓,福星里,121.460037,25.00248,14:19,,,Y,Y,,Y,Y,Y,,Y,Y,,Y,Y,Y,,Y,Y,,Y,Y,Y
板橋區,220002,A02路線下午,41,忠孝路190號,廣德里,121.465172,25.002634,14:23,,,Y,Y,,Y,Y,Y,,Y,Y,,Y,Y,Y,,Y,Y,,Y,Y,Y
板橋區,220002,A02路線下午,42,忠孝路239巷47號,福德里,121.46759,25.003761,14:25,,,Y,Y,,Y,Y,Y,,Y,Y,,Y,Y,Y,,Y,Y,,Y,Y,Y
板橋區,220002,A02路線下午,43,忠孝路239巷23號,福德里,121.46682,25.003412,14:27,,,Y,Y,,Y,Y,Y,,Y,Y,,Y,Y,Y,,Y,Y,,Y,Y,Y
板橋區,220002,A02路線下午,44,忠孝路239巷11號(守衛室),福德里,121.466202,25.003134,14:28,,,Y,Y,,Y,Y,Y,,Y,Y,,Y,Y,Y,,Y,Y,,Y,Y,Y
板橋區,220002,A02路線下午,45,忠孝路233號,福德里,121.466072,25.002798,14:30,,,Y,Y,,Y,Y,Y,,Y,Y,,Y,Y,Y,,Y,Y,,Y,Y,Y
板橋區,220002,A02路線下午,46,忠孝路221號(忠義巷8弄口),福德里,121.465675,25.002731,14:30,,,Y,Y,,Y,Y,Y,,Y,Y,,Y,Y,Y,,Y,Y,,Y,Y,Y
板橋區,220002,A02路線下午,47,忠孝路205號,福德里,121.465134,25.002655,14:31,,,Y,Y,,Y,Y,Y,,Y,Y,,Y,Y,Y,,Y,Y,,Y,Y,Y
板橋區,220002,A02路線下午,48,停整點:實踐路65巷口,福德里,121.463805432356,25.0064736178241,14:31,座標修正,,Y,Y,,Y,Y,Y,,Y,Y,,Y,Y,Y,,Y,Y,,Y,Y,Y
板橋區,220002,A02路線下午,49,實踐路65巷41號-新站愛?大廈,國泰里,121.46508,25.006456,14:36,,,Y,Y,,Y,Y,Y,,Y,Y,,Y,Y,Y,,Y,Y,,Y,Y,Y
板橋區,220002,A02路線下午,50,忠孝路忠義巷15弄96號,福德里,121.465317,25.005856,14:36,,,Y,Y,,Y,Y,Y,,Y,Y,,Y,Y,Y,,Y,Y,,Y,Y,Y
板橋區,220002,A02路線下午,51,忠孝路忠義巷15弄63號,福德里,121.465446,25.005093,14:36,,,Y,Y,,Y,Y,Y,,Y,Y,,Y,Y,Y,,Y,Y,,Y,Y,Y
板橋區,220002,A02路線下午,52,忠孝路忠義巷15弄43號,福德里,121.465637,25.004423,14:36,,,Y,Y,,Y,Y,Y,,Y,Y,,Y,Y,Y,,Y,Y,,Y,Y,Y
板橋區,220002,A02路線下午,53,忠孝路忠義巷15弄30號,福德里,121.465683,25.004257,14:37,,,Y,Y,,Y,Y,Y,,Y,Y,,Y,Y,Y,,Y,Y,,Y,Y,Y
板橋區,220002,A02路線下午,54,忠孝路忠義巷16弄口(里長服務處),福德里,121.465874,25.003679,14:37,,,Y,Y,,Y,Y,Y,,Y,Y,,Y,Y,Y,,Y,Y,,Y,Y,Y
板橋區,220002,A02路線下午,55,忠孝路忠義巷17弄口(右邊),福德里,121.466225,25.003769,14:38,,,Y,Y,,Y,Y,Y,,Y,Y,,Y,Y,Y,,Y,Y,,Y,Y,Y
板橋區,220002,A02路線下午,56,忠孝路忠義巷19弄口(右邊),福德里,121.466583,25.003862,14:38,,,Y,Y,,Y,Y,Y,,Y,Y,,Y,Y,Y,,Y,Y,,Y,Y,Y
板橋區,220002,A02路線下午,57,忠孝路忠義巷21弄口(右邊),福德里,121.466904,25.003941,14:39,,,Y,Y,,Y,Y,Y,,Y,Y,,Y,Y,Y,,Y,Y,,Y,Y,Y
板橋區,220002,A02路線下午,58,忠孝路忠義巷23弄5號,福德里,121.467178,25.004017,14:39,,,Y,Y,,Y,Y,Y,,Y,Y,,Y,Y,Y,,Y,Y,,Y,Y,Y
板橋區,220002,A02路線下午,59,國泰街75巷28弄66號(大樓),國泰里,121.467201,25.004486,14:39,,,Y,Y,,Y,Y,Y,,Y,Y,,Y,Y,Y,,Y,Y,,Y,Y,Y
板橋區,220002,A02路線下午,60,忠孝路忠義巷21弄口(左邊),福德里,121.46669,25.00478,14:40,,,Y,Y,,Y,Y,Y,,Y,Y,,Y,Y,Y,,Y,Y,,Y,Y,Y
板橋區,220002,A02路線下午,61,忠孝路忠義巷19弄口(左邊),福德里,121.466278,25.004923,14:40,,,Y,Y,,Y,Y,Y,,Y,Y,,Y,Y,Y,,Y,Y,,Y,Y,Y
板橋區,220002,A02路線下午,62,實踐路93巷50號,國泰里,121.465889,25.005054,14:40,,,Y,Y,,Y,Y,Y,,Y,Y,,Y,Y,Y,,Y,Y,,Y,Y,Y
板橋區,220002,A02路線下午,63,實踐路65巷8弄28號,國泰里,121.464523,25.005619,14:41,,,Y,Y,,Y,Y,Y,,Y,Y,,Y,Y,Y,,Y,Y,,Y,Y,Y
板橋區,220002,A02路線下午,64,忠孝路201巷103號,福德里,121.464569,25.005289,14:42,,,Y,Y,,Y,Y,Y,,Y,Y,,Y,Y,Y,,Y,Y,,Y,Y,Y
板橋區,220002,A02路線下午,65,忠孝路201巷95號,福德里,121.464645,25.004906,14:42,,,Y,Y,,Y,Y,Y,,Y,Y,,Y,Y,Y,,Y,Y,,Y,Y,Y
板橋區,220002,A02路線下午,66,忠孝路201巷79號,福德里,121.464699,25.00445,14:43,,,Y,Y,,Y,Y,Y,,Y,Y,,Y,Y,Y,,Y,Y,,Y,Y,Y
板橋區,220002,A02路線下午,67,忠孝路201巷57號,福德里,121.46479,25.003983,14:43,,,Y,Y,,Y,Y,Y,,Y,Y,,Y,Y,Y,,Y,Y,,Y,Y,Y
板橋區,220002,A02路線下午,68,忠孝路201巷32號,福德里,121.464951,25.003435,14:44,,,Y,Y,,Y,Y,Y,,Y,Y,,Y,Y,Y,,Y,Y,,Y,Y,Y
板橋區,220002,A02路線下午,69,忠孝路忠義巷14弄口,福德里,121.465472909804,25.0035722607995,14:44,,,Y,Y,,Y,Y,Y,,Y,Y,,Y,Y,Y,,Y,Y,,Y,Y,Y
板橋區,220002,A02路線下午,70,忠孝路忠義巷9弄20號,福德里,121.465362,25.004127,14:45,,,Y,Y,,Y,Y,Y,,Y,Y,,Y,Y,Y,,Y,Y,,Y,Y,Y
板橋區,220002,A02路線下午,71,忠孝路忠義巷9弄32號,福德里,121.465327574239,25.0042191155869,14:46,,,Y,Y,,Y,Y,Y,,Y,Y,,Y,Y,Y,,Y,Y,,Y,Y,Y
板橋區,220002,A02路線下午,72,忠孝路忠義巷9弄46號,福德里,121.465231209821,25.0044872924534,14:46,,,Y,Y,,Y,Y,Y,,Y,Y,,Y,Y,Y,,Y,Y,,Y,Y,Y
板橋區,220002,A02路線下午,73,忠孝路忠義巷9弄13號,福德里,121.465157938657,25.0047528231094,14:46,,,Y,Y,,Y,Y,Y,,Y,Y,,Y,Y,Y,,Y,Y,,Y,Y,Y
板橋區,220002,A02路線下午,74,忠孝路忠義巷9弄27號口,福德里,121.465062338045,25.0052296462041,14:47,,,Y,Y,,Y,Y,Y,,Y,Y,,Y,Y,Y,,Y,Y,,Y,Y,Y
板橋區,220002,A02路線下午,75,忠孝路忠義巷9弄口,福德里,121.4650413,25.00531301,14:47,,,Y,Y,,Y,Y,Y,,Y,Y,,Y,Y,Y,,Y,Y,,Y,Y,Y
板橋區,220003,A03路線下午,1,忠孝路28號,福星里,121.460182,25.001852,13:36,,,Y,Y,,Y,Y,Y,,Y,Y,,Y,Y,Y,,Y,Y,,Y,Y,Y
板橋區,220003,A03路線下午,2,忠孝路48巷口,福星里,121.460709,25.001934,13:37,,,Y,Y,,Y,Y,Y,,Y,Y,,Y,Y,Y,,Y,Y,,Y,Y,Y
板橋區,220003,A03路線下午,3,忠孝路64巷口,福星里,121.461128,25.001999,13:38,,,Y,Y,,Y,Y,Y,,Y,Y,,Y,Y,Y,,Y,Y,,Y,Y,Y
板橋區,220003,A03路線下午,4,忠孝路80巷口,福星里,121.461502,25.002056,13:38,,,Y,Y,,Y,Y,Y,,Y,Y,,Y,Y,Y,,Y,Y,,Y,Y,Y
板橋區,220003,A03路線下午,5,忠孝路96號-忠孝名門大樓,福星里,121.461886466847,25.0021106527748,13:39,,,Y,Y,,Y,Y,Y,,Y,Y,,Y,Y,Y,,Y,Y,,Y,Y,Y
板橋區,220003,A03路線下午,6,忠孝路110號,福星里,121.462387,25.002195,13:40,,,Y,Y,,Y,Y,Y,,Y,Y,,Y,Y,Y,,Y,Y,,Y,Y,Y
板橋區,220003,A03路線下午,7,忠孝路120號,福星里,121.4630453,25.00228506,13:41,地址誤植修正,,Y,Y,,Y,Y,Y,,Y,Y,,Y,Y,Y,,Y,Y,,Y,Y,Y
板橋區,220003,A03路線下午,8,忠孝路142號,廣德里,121.463775376074,25.0024034534202,13:42,,,Y,Y,,Y,Y,Y,,Y,Y,,Y,Y,Y,,Y,Y,,Y,Y,Y
板橋區,220003,A03路線下午,9,忠孝路162號,廣德里,121.46418,25.002472,13:43,,,Y,Y,,Y,Y,Y,,Y,Y,,Y,Y,Y,,Y,Y,,Y,Y,Y
板橋區,220003,A03路線下午,10,忠孝路167號,福德里,121.463859804893,25.0024565305697,13:45,,,Y,Y,,Y,Y,Y,,Y,Y,,Y,Y,Y,,Y,Y,,Y,Y,Y
板橋區,220003,A03路線下午,11,忠孝路147號,福德里,121.463326,25.0023766237327,13:46,,,Y,Y,,Y,Y,Y,,Y,Y,,Y,Y,Y,,Y,Y,,Y,Y,Y
板橋區,220003,A03路線下午,12,忠孝路125號,福星里,121.46308028282,25.0023335080117,13:47,,,Y,Y,,Y,Y,Y,,Y,Y,,Y,Y,Y,,Y,Y,,Y,Y,Y
板橋區,220003,A03路線下午,13,忠孝路87號,福星里,121.462112107969,25.0021841768526,13:48,,,Y,Y,,Y,Y,Y,,Y,Y,,Y,Y,Y,,Y,Y,,Y,Y,Y
板橋區,220003,A03路線下午,14,忠孝路39號,福星里,121.461138192625,25.0020399614174,13:48,,,Y,Y,,Y,Y,Y,,Y,Y,,Y,Y,Y,,Y,Y,,Y,Y,Y
板橋區,220003,A03路線下午,15,忠孝路25號,福星里,121.460547906745,25.0019460771701,13:53,,,Y,Y,,Y,Y,Y,,Y,Y,,Y,Y,Y,,Y,Y,,Y,Y,Y
板橋區,220003,A03路線下午,16,中山路一段134號,深丘里,121.463256,25.01079775,13:57,,,Y,Y,,Y,Y,Y,,Y,Y,,Y,Y,Y,,Y,Y,,Y,Y,Y
板橋區,220003,A03路線下午,17,民安街14號,深丘里,121.466721,25.011597,13:58,,,Y,Y,,Y,Y,Y,,Y,Y,,Y,Y,Y,,Y,Y,,Y,Y,Y
板橋區,220003,A03路線下午,18,民安街30號,深丘里,121.4669664,25.0111887,13:59,,,Y,Y,,Y,Y,Y,,Y,Y,,Y,Y,Y,,Y,Y,,Y,Y,Y
板橋區,220003,A03路線下午,19,中山路一段158巷29號,深丘里,121.4664902,25.011147,14:00,,,Y,Y,,Y,Y,Y,,Y,Y,,Y,Y,Y,,Y,Y,,Y,Y,Y
板橋區,220003,A03路線下午,20,中山路一段158巷13號,深丘里,121.4662814,25.0115288,14:01,,,Y,Y,,Y,Y,Y,,Y,Y,,Y,Y,Y,,Y,Y,,Y,Y,Y
板橋區,220003,A03路線下午,21,中山路一段158巷3號,深丘里,121.466105,25.011873,14:02,,,Y,Y,,Y,Y,Y,,Y,Y,,Y,Y,Y,,Y,Y,,Y,Y,Y
板橋區,220003,A03路線下午,22,民族路57號-環保局,深丘里,121.464798,25.008902,14:04,,,Y,Y,,Y,Y,Y,,Y,Y,,Y,Y,Y,,Y,Y,,Y,Y,Y
板橋區,220003,A03路線下午,23,新民街21號,福丘里,121.464119,25.01012,14:05,,,Y,Y,,Y,Y,Y,,Y,Y,,Y,Y,Y,,Y,Y,,Y,Y,Y
板橋區,220003,A03路線下午,24,新民街9號,福丘里,121.463951,25.009689,14:05,,,Y,Y,,Y,Y,Y,,Y,Y,,Y,Y,Y,,Y,Y,,Y,Y,Y
板橋區,220003,A03路線下午,25,新民街7巷1號,福丘里,121.463753,25.00976,14:06,,,Y,Y,,Y,Y,Y,,Y,Y,,Y,Y,Y,,Y,Y,,Y,Y,Y
板橋區,220003,A03路線下午,26,新民街7巷13號,福丘里,121.463531,25.010218,14:07,,,Y,Y,,Y,Y,Y,,Y,Y,,Y,Y,Y,,Y,Y,,Y,Y,Y
板橋區,220003,A03路線下午,27,新民街7巷23號,福丘里,121.463539,25.010422,14:08,,,Y,Y,,Y,Y,Y,,Y,Y,,Y,Y,Y,,Y,Y,,Y,Y,Y
板橋區,220003,A03路線下午,28,新民街7巷29號,福丘里,121.463692,25.01049,14:09,,,Y,Y,,Y,Y,Y,,Y,Y,,Y,Y,Y,,Y,Y,,Y,Y,Y
板橋區,220003,A03路線下午,29,新民街6巷口,深丘里,121.46488,25.01039,14:10,,,Y,Y,,Y,Y,Y,,Y,Y,,Y,Y,Y,,Y,Y,,Y,Y,Y
板橋區,220003,A03路線下午,30,新民街6巷14號,深丘里,121.4648072,25.0103002,14:11,,,Y,Y,,Y,Y,Y,,Y,Y,,Y,Y,Y,,Y,Y,,Y,Y,Y
板橋區,220003,A03路線下午,31,新民街4巷21號,深丘里,121.46518,25.0099,14:12,,,Y,Y,,Y,Y,Y,,Y,Y,,Y,Y,Y,,Y,Y,,Y,Y,Y
板橋區,220003,A03路線下午,32,停整點:新民街4巷17號,深丘里,121.4649,25.00999,14:13,,,Y,Y,,Y,Y,Y,,Y,Y,,Y,Y,Y,,Y,Y,,Y,Y,Y
板橋區,220003,A03路線下午,33,館前東路156巷9號,國泰里,121.464333,25.007254,14:19,,,Y,Y,,Y,Y,Y,,Y,Y,,Y,Y,Y,,Y,Y,,Y,Y,Y
板橋區,220003,A03路線下午,34,館前東路156巷21號,國泰里,121.46418,25.006916,14:20,,,Y,Y,,Y,Y,Y,,Y,Y,,Y,Y,Y,,Y,Y,,Y,Y,Y
板橋區,220003,A03路線下午,35,館前東路156巷29號,國泰里,121.464592,25.006731,14:21,,,Y,Y,,Y,Y,Y,,Y,Y,,Y,Y,Y,,Y,Y,,Y,Y,Y
板橋區,220003,A03路線下午,36,實踐路65巷17號,國泰里,121.46431,25.006493,14:22,,,Y,Y,,Y,Y,Y,,Y,Y,,Y,Y,Y,,Y,Y,,Y,Y,Y
板橋區,220003,A03路線下午,37,重慶路278巷2號,大豐里,121.46283,24.999681,14:27,,,Y,Y,,Y,Y,Y,,Y,Y,,Y,Y,Y,,Y,Y,,Y,Y,Y
板橋區,220003,A03路線下午,38,重慶路278巷12號,大豐里,121.462456,24.999615,14:28,,,Y,Y,,Y,Y,Y,,Y,Y,,Y,Y,Y,,Y,Y,,Y,Y,Y
板橋區,220003,A03路線下午,39,重慶路290巷22弄27號,大豐里,121.462189,24.999508,14:29,,,Y,Y,,Y,Y,Y,,Y,Y,,Y,Y,Y,,Y,Y,,Y,Y,Y
板橋區,220003,A03路線下午,40,重慶路290巷22弄4號,大豐里,121.46225,24.99916,14:30,,,Y,Y,,Y,Y,Y,,Y,Y,,Y,Y,Y,,Y,Y,,Y,Y,Y
板橋區,220003,A03路線下午,41,重慶路290巷10號,大豐里,121.46275,24.99892,14:32,,,Y,Y,,Y,Y,Y,,Y,Y,,Y,Y,Y,,Y,Y,,Y,Y,Y
板橋區,220003,A03路線下午,42,重慶路290巷46弄口,大豐里,121.461571,24.998726,14:35,,,Y,Y,,Y,Y,Y,,Y,Y,,Y,Y,Y,,Y,Y,,Y,Y,Y
板橋區,220003,A03路線下午,43,國慶路149巷2弄口,重慶里,121.461311,24.99662,14:37,,,Y,Y,,Y,Y,Y,,Y,Y,,Y,Y,Y,,Y,Y,,Y,Y,Y
板橋區,220003,A03路線下午,44,國慶路149巷6弄口,重慶里,121.461227,24.996962,14:38,,,Y,Y,,Y,Y,Y,,Y,Y,,Y,Y,Y,,Y,Y,,Y,Y,Y
板橋區,220003,A03路線下午,45,國慶路149巷13弄4號,重慶里,121.46078,24.9971,14:39,,,Y,Y,,Y,Y,Y,,Y,Y,,Y,Y,Y,,Y,Y,,Y,Y,Y
板橋區,220003,A03路線下午,46,國慶路149巷13弄10號,重慶里,121.46049,24.99705,14:42,,,Y,Y,,Y,Y,Y,,Y,Y,,Y,Y,Y,,Y,Y,,Y,Y,Y
板橋區,220003,A03路線下午,47,國慶路149巷21弄8號,重慶里,121.46053,24.99735,14:44,,,Y,Y,,Y,Y,Y,,Y,Y,,Y,Y,Y,,Y,Y,,Y,Y,Y
板橋區,220003,A03路線下午,48,國慶路149巷21弄2號,重慶里,121.46091,24.99741,14:45,,,Y,Y,,Y,Y,Y,,Y,Y,,Y,Y,Y,,Y,Y,,Y,Y,Y
板橋區,220003,A03路線下午,49,國慶路149巷29弄4號,重慶里,121.46073,24.99769,14:46,,,Y,Y,,Y,Y,Y,,Y,Y,,Y,Y,Y,,Y,Y,,Y,Y,Y
板橋區,220003,A03路線下午,50,國慶路149巷29弄16號,重慶里,121.46027,24.9976,14:47,,,Y,Y,,Y,Y,Y,,Y,Y,,Y,Y,Y,,Y,Y,,Y,Y,Y
板橋區,220003,A03路線下午,51,仁愛路62巷17弄口,仁愛里,121.460083,24.998199,14:48,,,Y,Y,,Y,Y,Y,,Y,Y,,Y,Y,Y,,Y,Y,,Y,Y,Y
板橋區,220003,A03路線下午,52,仁愛路62巷14弄口,仁愛里,121.459999,24.998529,14:49,,,Y,Y,,Y,Y,Y,,Y,Y,,Y,Y,Y,,Y,Y,,Y,Y,Y
板橋區,220003,A03路線下午,53,仁愛路62巷口,仁愛里,121.45985,24.99941,14:55,,,Y,Y,,Y,Y,Y,,Y,Y,,Y,Y,Y,,Y,Y,,Y,Y,Y
板橋區,220003,A03路線下午,54,仁愛路76巷口,仁愛里,121.460541,24.999525,14:56,,,Y,Y,,Y,Y,Y,,Y,Y,,Y,Y,Y,,Y,Y,,Y,Y,Y
板橋區,220003,A03路線下午,55,仁愛路76巷10號,仁愛里,121.460564,24.999086,14:57,,,Y,Y,,Y,Y,Y,,Y,Y,,Y,Y,Y,,Y,Y,,Y,Y,Y
板橋區,220003,A03路線下午,56,仁愛路62巷15弄24號,仁愛里,121.4608,24.99861,14:58,,,Y,Y,,Y,Y,Y,,Y,Y,,Y,Y,Y,,Y,Y,,Y,Y,Y
板橋區,220003,A03路線下午,57,仁愛路86巷14號,仁愛里,121.46107,24.99896,14:59,,,Y,Y,,Y,Y,Y,,Y,Y,,Y,Y,Y,,Y,Y,,Y,Y,Y
板橋區,220003,A03路線下午,58,仁愛路86巷8號,仁愛里,121.46103,24.99915,15:00,,,Y,Y,,Y,Y,Y,,Y,Y,,Y,Y,Y,,Y,Y,,Y,Y,Y
板橋區,220003,A03路線下午,59,仁愛路73巷口,仁愛里,121.46095,24.99965,15:02,,,Y,Y,,Y,Y,Y,,Y,Y,,Y,Y,Y,,Y,Y,,Y,Y,Y
板橋區,220003,A03路線下午,60,忠孝路48巷11弄5號,大豐里,121.46152,24.99976,15:03,,,Y,Y,,Y,Y,Y,,Y,Y,,Y,Y,Y,,Y,Y,,Y,Y,Y
板橋區,220003,A03路線下午,61,忠孝路48巷11弄17號,大豐里,121.46198,24.99982,15:04,,,Y,Y,,Y,Y,Y,,Y,Y,,Y,Y,Y,,Y,Y,,Y,Y,Y
板橋區,220003,A03路線下午,62,國慶路149巷4弄16號,重慶里,121.46184,24.997,15:08,,,Y,Y,,Y,Y,Y,,Y,Y,,Y,Y,Y,,Y,Y,,Y,Y,Y
板橋區,220003,A03路線下午,63,國慶路167巷27號,重慶里,121.461746,24.997787,15:09,,,Y,Y,,Y,Y,Y,,Y,Y,,Y,Y,Y,,Y,Y,,Y,Y,Y
板橋區,220003,A03路線下午,64,國慶路149巷38弄2號,重慶里,121.461021,24.998138,15:11,,,Y,Y,,Y,Y,Y,,Y,Y,,Y,Y,Y,,Y,Y,,Y,Y,Y
板橋區,220003,A03路線下午,65,國慶路149巷37弄1號,重慶里,121.46078,24.99801,15:12,,,Y,Y,,Y,Y,Y,,Y,Y,,Y,Y,Y,,Y,Y,,Y,Y,Y
板橋區,220003,A03路線下午,66,國慶路149巷37弄13號,重慶里,121.46031,24.99792,15:13,,,Y,Y,,Y,Y,Y,,Y,Y,,Y,Y,Y,,Y,Y,,Y,Y,Y
板橋區,220003,A03路線下午,67,仁愛路28號,仁愛里,121.459,24.999422,15:15,,,Y,Y,,Y,Y,Y,,Y,Y,,Y,Y,Y,,Y,Y,,Y,Y,Y
板橋區,220004,A04路線下午1.4.6,1,四川路一段30號,鄉雲里,121.459457,25.006456,13:38,,,Y,,,Y,,Y,,Y,,,Y,,Y,,Y,,,Y,,Y
板橋區,220004,A04路線下午1.4.6,2,四川路一段40號,鄉雲里,121.459496,25.006229,13:38,,,Y,,,Y,,Y,,Y,,,Y,,Y,,Y,,,Y,,Y
板橋區,220004,A04路線下午1.4.6,3,四川路一段62號,鄉雲里,121.459557,25.005924,13:39,,,Y,,,Y,,Y,,Y,,,Y,,Y,,Y,,,Y,,Y
板橋區,220004,A04路線下午1.4.6,4,四川路一段78號,鄉雲里,121.459579,25.005728,13:39,,,Y,,,Y,,Y,,Y,,,Y,,Y,,Y,,,Y,,Y
板橋區,220004,A04路線下午1.4.6,5,四川路一段94號-大樓,鄉雲里,121.459732,25.004856,13:40,,,Y,,,Y,,Y,,Y,,,Y,,Y,,Y,,,Y,,Y
板橋區,220004,A04路線下午1.4.6,6,四川路一段104號,鄉雲里,121.459806632523,25.0045817445822,13:41,,,Y,,,Y,,Y,,Y,,,Y,,Y,,Y,,,Y,,Y
板橋區,220004,A04路線下午1.4.6,7,四川路一段126號,鄉雲里,121.459892623925,25.004017,13:42,,,Y,,,Y,,Y,,Y,,,Y,,Y,,Y,,,Y,,Y
板橋區,220004,A04路線下午1.4.6,8,四川路一段142號-大樓,鄉雲里,121.459946,25.003567,13:42,,,Y,,,Y,,Y,,Y,,,Y,,Y,,Y,,,Y,,Y
板橋區,220004,A04路線下午1.4.6,9,四川路一段170號,鄉雲里,121.459923,25.003038,13:43,,,Y,,,Y,,Y,,Y,,,Y,,Y,,Y,,,Y,,Y
板橋區,220004,A04路線下午1.4.6,10,四川路一段196號,鄉雲里,121.45963988649,25.0024368879951,13:44,,,Y,,,Y,,Y,,Y,,,Y,,Y,,Y,,,Y,,Y
板橋區,220004,A04路線下午1.4.6,11,四川路一段208號,鄉雲里,121.45949846073,25.0021820611144,13:44,,,Y,,,Y,,Y,,Y,,,Y,,Y,,Y,,,Y,,Y
板橋區,220004,A04路線下午1.4.6,12,四川路一段234號,鄉雲里,121.45928510491,25.0017522412867,13:45,,,Y,,,Y,,Y,,Y,,,Y,,Y,,Y,,,Y,,Y
板橋區,220004,A04路線下午1.4.6,13,四川路一段262號,鄉雲里,121.458977944774,25.001243662498,13:45,,,Y,,,Y,,Y,,Y,,,Y,,Y,,Y,,,Y,,Y
板橋區,220004,A04路線下午1.4.6,14,四川路一段278號,鄉雲里,121.458818836805,25.0009648981001,13:46,,,Y,,,Y,,Y,,Y,,,Y,,Y,,Y,,,Y,,Y
板橋區,220004,A04路線下午1.4.6,15,四川路一段296號,鄉雲里,121.458651755207,25.0005994796963,13:46,,,Y,,,Y,,Y,,Y,,,Y,,Y,,Y,,,Y,,Y
板橋區,220004,A04路線下午1.4.6,16,四川路一段316號,鄉雲里,121.458458026372,25.0001589673542,13:47,,,Y,,,Y,,Y,,Y,,,Y,,Y,,Y,,,Y,,Y
板橋區,220004,A04路線下午1.4.6,17,四川路一段336號,鄉雲里,121.457311833746,24.9976948008338,13:47,,,Y,,,Y,,Y,,Y,,,Y,,Y,,Y,,,Y,,Y
板橋區,220004,A04路線下午1.4.6,18,信義路16號,信義里,121.456985,24.99596,13:49,,,Y,,,Y,,Y,,Y,,,Y,,Y,,Y,,,Y,,Y
板橋區,220004,A04路線下午1.4.6,19,信義路16-9號,信義里,121.457016,24.995464,13:50,,,Y,,,Y,,Y,,Y,,,Y,,Y,,Y,,,Y,,Y
板橋區,220004,A04路線下午1.4.6,20,信義路26巷口,信義里,121.457039,24.995184,13:51,,,Y,,,Y,,Y,,Y,,,Y,,Y,,Y,,,Y,,Y
板橋區,220004,A04路線下午1.4.6,21,信義路38號,信義里,121.457077,24.994587,13:51,,,Y,,,Y,,Y,,Y,,,Y,,Y,,Y,,,Y,,Y
板橋區,220004,A04路線下午1.4.6,22,信義路60號,信義里,121.457275,24.99379,13:51,,,Y,,,Y,,Y,,Y,,,Y,,Y,,Y,,,Y,,Y
板橋區,220004,A04路線下午1.4.6,23,信義路74巷口,信義里,121.457535,24.99349,13:52,,,Y,,,Y,,Y,,Y,,,Y,,Y,,Y,,,Y,,Y
板橋區,220004,A04路線下午1.4.6,24,信義路92號,信義里,121.45797,24.993006,13:53,,,Y,,,Y,,Y,,Y,,,Y,,Y,,Y,,,Y,,Y
板橋區,220004,A04路線下午1.4.6,25,信義路110巷口,信義里,121.458282,24.992632,13:55,,,Y,,,Y,,Y,,Y,,,Y,,Y,,Y,,,Y,,Y
板橋區,220004,A04路線下午1.4.6,26,信義路134號,信義里,121.45871,24.992184,13:56,,,Y,,,Y,,Y,,Y,,,Y,,Y,,Y,,,Y,,Y
板橋區,220004,A04路線下午1.4.6,27,信義路150巷口,信義里,121.459015,24.991873,13:57,,,Y,,,Y,,Y,,Y,,,Y,,Y,,Y,,,Y,,Y
板橋區,220004,A04路線下午1.4.6,28,停整點:信義路150巷36號,信義里,121.457649,24.991833,13:58,,,Y,,,Y,,Y,,Y,,,Y,,Y,,Y,,,Y,,Y
板橋區,220004,A04路線下午1.4.6,29,信義路74巷7弄9號,信義里,121.456749,24.992479,14:03,,,Y,,,Y,,Y,,Y,,,Y,,Y,,Y,,,Y,,Y
板橋區,220004,A04路線下午1.4.6,30,信義路74巷7弄口,信義里,121.456718,24.992779,14:04,,,Y,,,Y,,Y,,Y,,,Y,,Y,,Y,,,Y,,Y
板橋區,220004,A04路線下午1.4.6,31,信義路74巷3弄口,信義里,121.457024,24.99304,14:05,,,Y,,,Y,,Y,,Y,,,Y,,Y,,Y,,,Y,,Y
板橋區,220004,A04路線下午1.4.6,32,信義路74巷1弄口,信義里,121.457275,24.99324,14:06,,,Y,,,Y,,Y,,Y,,,Y,,Y,,Y,,,Y,,Y
板橋區,220004,A04路線下午1.4.6,33,信義路110巷2弄14號,信義里,121.457649,24.992741,14:07,,,Y,,,Y,,Y,,Y,,,Y,,Y,,Y,,,Y,,Y
板橋區,220004,A04路線下午1.4.6,34,信義路110巷1弄1號,信義里,121.458054,24.992296,14:08,,,Y,,,Y,,Y,,Y,,,Y,,Y,,Y,,,Y,,Y
板橋區,220004,A04路線下午1.4.6,35,信義路150巷16號,信義里,121.458227,24.991793,14:09,,,Y,,,Y,,Y,,Y,,,Y,,Y,,Y,,,Y,,Y
板橋區,220004,A04路線下午1.4.6,36,信義路150巷1弄口,信義里,121.458865,24.991747,14:12,,,Y,,,Y,,Y,,Y,,,Y,,Y,,Y,,,Y,,Y
板橋區,220004,A04路線下午1.4.6,37,信義路170巷口,信義里,121.459465,24.991493,14:13,,,Y,,,Y,,Y,,Y,,,Y,,Y,,Y,,,Y,,Y
板橋區,220004,A04路線下午1.4.6,38,信義路200號,信義里,121.460037,24.990923,14:14,,,Y,,,Y,,Y,,Y,,,Y,,Y,,Y,,,Y,,Y
板橋區,220004,A04路線下午1.4.6,39,信義路279巷10號,廣福里,121.462086,24.989497,14:16,,,Y,,,Y,,Y,,Y,,,Y,,Y,,Y,,,Y,,Y
板橋區,220004,A04路線下午1.4.6,40,信義路279巷13號,廣福里,121.462906,24.989934,14:17,,,Y,,,Y,,Y,,Y,,,Y,,Y,,Y,,,Y,,Y
板橋區,220004,A04路線下午1.4.6,41,信義路279巷21號,廣福里,121.46442709999996,24.9902593,14:17,,,Y,,,Y,,Y,,Y,,,Y,,Y,,Y,,,Y,,Y
板橋區,220004,A04路線下午1.4.6,42,信義路279巷23號口,廣福里,121.464892,24.990364,14:18,,,Y,,,Y,,Y,,Y,,,Y,,Y,,Y,,,Y,,Y
板橋區,220004,A04路線下午1.4.6,43,信義路233號-大樓,廣福里,121.459801,24.991266,14:21,,,Y,,,Y,,Y,,Y,,,Y,,Y,,Y,,,Y,,Y
板橋區,220004,A04路線下午1.4.6,44,信義路213巷口,廣福里,121.459404,24.991566,14:21,,,Y,,,Y,,Y,,Y,,,Y,,Y,,Y,,,Y,,Y
板橋區,220004,A04路線下午1.4.6,45,信義路175號-大樓,廣福里,121.458839,24.992098,14:22,,,Y,,,Y,,Y,,Y,,,Y,,Y,,Y,,,Y,,Y
板橋區,220004,A04路線下午1.4.6,46,信義路141號,廣福里,121.457932,24.993065,14:23,,,Y,,,Y,,Y,,Y,,,Y,,Y,,Y,,,Y,,Y
板橋區,220004,A04路線下午1.4.6,47,信義路103號,廣福里,121.457481,24.993589,14:24,,,Y,,,Y,,Y,,Y,,,Y,,Y,,Y,,,Y,,Y
板橋區,220004,A04路線下午1.4.6,48,信義路91號,廣福里,121.457245,24.993864,14:25,,,Y,,,Y,,Y,,Y,,,Y,,Y,,Y,,,Y,,Y
板橋區,220004,A04路線下午1.4.6,49,和平路4號-大樓,廣福里,121.458099,24.994198,14:25,,,Y,,,Y,,Y,,Y,,,Y,,Y,,Y,,,Y,,Y
板橋區,220004,A04路線下午1.4.6,50,干城路6號,廣福里,121.459433296958,24.9940697227884,14:27,座標修正,,Y,,,Y,,Y,,Y,,,Y,,Y,,Y,,,Y,,Y
板橋區,220004,A04路線下午1.4.6,51,干城路20巷6號,廣福里,121.459671,24.993645,14:28,,,Y,,,Y,,Y,,Y,,,Y,,Y,,Y,,,Y,,Y
板橋區,220004,A04路線下午1.4.6,52,干城路156號,廣福里,121.460121,24.992758,14:30,,,Y,,,Y,,Y,,Y,,,Y,,Y,,Y,,,Y,,Y
板橋區,220004,A04路線下午1.4.6,53,干城路159號,廣福里,121.460587,24.992207,14:31,,,Y,,,Y,,Y,,Y,,,Y,,Y,,Y,,,Y,,Y
板橋區,220004,A04路線下午1.4.6,54,干城路145號,廣福里,121.459862,24.993202,14:33,,,Y,,,Y,,Y,,Y,,,Y,,Y,,Y,,,Y,,Y
板橋區,220004,A04路線下午1.4.6,55,干城路137號,廣福里,121.459757,24.99335,14:34,,,Y,,,Y,,Y,,Y,,,Y,,Y,,Y,,,Y,,Y
板橋區,220004,A04路線下午1.4.6,56,國慶路31巷口,重慶里,121.458873,24.995622,14:41,,,Y,,,Y,,Y,,Y,,,Y,,Y,,Y,,,Y,,Y
板橋區,220004,A04路線下午1.4.6,57,國慶路49巷19弄10號,重慶里,121.459015,24.996177,14:42,,,Y,,,Y,,Y,,Y,,,Y,,Y,,Y,,,Y,,Y
板橋區,220004,A04路線下午1.4.6,58,國慶路49巷19弄2號,重慶里,121.459363,24.996242,14:42,,,Y,,,Y,,Y,,Y,,,Y,,Y,,Y,,,Y,,Y
板橋區,220004,A04路線下午1.4.6,59,信義路1巷26弄44號,重慶里,121.458885,24.996746,14:43,,,Y,,,Y,,Y,,Y,,,Y,,Y,,Y,,,Y,,Y
板橋區,220004,A04路線下午1.4.6,60,信義路1巷26弄36號,重慶里,121.458702,24.996721,14:43,,,Y,,,Y,,Y,,Y,,,Y,,Y,,Y,,,Y,,Y
板橋區,220004,A04路線下午1.4.6,61,信義路1巷26弄28號,重慶里,121.458218,24.996617,14:44,,,Y,,,Y,,Y,,Y,,,Y,,Y,,Y,,,Y,,Y
板橋區,220004,A04路線下午1.4.6,62,信義路1巷26弄口,重慶里,121.458122,24.996676,14:44,,,Y,,,Y,,Y,,Y,,,Y,,Y,,Y,,,Y,,Y
板橋區,220004,A04路線下午1.4.6,63,信義路1巷26弄2號,重慶里,121.458077,24.996998,14:45,,,Y,,,Y,,Y,,Y,,,Y,,Y,,Y,,,Y,,Y
板橋區,220004,A04路線下午1.4.6,64,信義路1巷22號,重慶里,121.457588,24.997181,14:45,,,Y,,,Y,,Y,,Y,,,Y,,Y,,Y,,,Y,,Y
板橋區,220004,A04路線下午1.4.6,65,信義路1巷口,重慶里,121.457001,24.996965,14:46,,,Y,,,Y,,Y,,Y,,,Y,,Y,,Y,,,Y,,Y
板橋區,220004,A04路線下午1.4.6,66,停整點:四川路二段47巷2弄口,華德里,121.454018,24.99502,14:47,,,Y,,,Y,,Y,,Y,,,Y,,Y,,Y,,,Y,,Y
板橋區,220004,A04路線下午1.4.6,67,四川路二段47巷3弄口,華德里,121.454163,24.994738,14:52,,,Y,,,Y,,Y,,Y,,,Y,,Y,,Y,,,Y,,Y
板橋區,220004,A04路線下午1.4.6,68,四川路二段47巷9號,華德里,121.454277,24.994499,14:53,,,Y,,,Y,,Y,,Y,,,Y,,Y,,Y,,,Y,,Y
板橋區,220004,A04路線下午1.4.6,69,德興街37巷9號,華德里,121.453995,24.993914,14:54,,,Y,,,Y,,Y,,Y,,,Y,,Y,,Y,,,Y,,Y
板橋區,220004,A04路線下午1.4.6,70,四川路二段99巷4弄,華德里,121.4529016,24.99413219,14:55,,,Y,,,Y,,Y,,Y,,,Y,,Y,,Y,,,Y,,Y
板橋區,220004,A04路線下午1.4.6,71,四川路二段99巷5弄口,華德里,121.4527869,24.99440113,14:56,,,Y,,,Y,,Y,,Y,,,Y,,Y,,Y,,,Y,,Y
板橋區,220004,A04路線下午1.4.6,72,四川路二段76巷1弄口,華東里,121.4523464,24.99477413,14:57,,,Y,,,Y,,Y,,Y,,,Y,,Y,,Y,,,Y,,Y
板橋區,220004,A04路線下午1.4.6,73,四川路二段94號,華東里,121.4517966,24.9945927,14:58,,,Y,,,Y,,Y,,Y,,,Y,,Y,,Y,,,Y,,Y
板橋區,220004,A04路線下午1.4.6,74,四川路二段114號,華東里,121.450539,24.993925,15:00,,,Y,,,Y,,Y,,Y,,,Y,,Y,,Y,,,Y,,Y
板橋區,220005,A05路線下午,1,館前西路29號,鄉雲里,121.458435,25.006845,13:40,,,Y,Y,,Y,Y,Y,,Y,Y,,Y,Y,Y,,Y,Y,,Y,Y,Y
板橋區,220005,A05路線下午,2,館前西路15號,鄉雲里,121.458893,25.006927,13:40,,,Y,Y,,Y,Y,Y,,Y,Y,,Y,Y,Y,,Y,Y,,Y,Y,Y
板橋區,220005,A05路線下午,3,館前東路14號,鄉雲里,121.459808,25.007074,13:41,,,Y,Y,,Y,Y,Y,,Y,Y,,Y,Y,Y,,Y,Y,,Y,Y,Y
板橋區,220005,A05路線下午,4,館前東路20號-大樓,景星里,121.460068,25.00712,13:41,,,Y,Y,,Y,Y,Y,,Y,Y,,Y,Y,Y,,Y,Y,,Y,Y,Y
板橋區,220005,A05路線下午,5,館前東路29號,景星里,121.460533,25.007193,13:41,,,Y,Y,,Y,Y,Y,,Y,Y,,Y,Y,Y,,Y,Y,,Y,Y,Y
板橋區,220005,A05路線下午,6,館前東路62號,景星里,121.460815,25.007256,13:43,,,Y,Y,,Y,Y,Y,,Y,Y,,Y,Y,Y,,Y,Y,,Y,Y,Y
板橋區,220005,A05路線下午,7,館前東路76號,景星里,121.461456,25.007368,13:44,,,Y,Y,,Y,Y,Y,,Y,Y,,Y,Y,Y,,Y,Y,,Y,Y,Y
板橋區,220005,A05路線下午,8,重慶路60巷口,景星里,121.461784,25.006907,13:45,,,Y,Y,,Y,Y,Y,,Y,Y,,Y,Y,Y,,Y,Y,,Y,Y,Y
板橋區,220005,A05路線下午,9,重慶路76巷口,景星里,121.461906,25.006325,13:45,,,Y,Y,,Y,Y,Y,,Y,Y,,Y,Y,Y,,Y,Y,,Y,Y,Y
板橋區,220005,A05路線下午,10,重慶路88巷口,景星里,121.461983,25.005976,13:46,,,Y,Y,,Y,Y,Y,,Y,Y,,Y,Y,Y,,Y,Y,,Y,Y,Y
板橋區,220005,A05路線下午,11,重慶路104號,景星里,121.462051,25.005648,13:46,,,Y,Y,,Y,Y,Y,,Y,Y,,Y,Y,Y,,Y,Y,,Y,Y,Y
板橋區,220005,A05路線下午,12,重慶路190號,福星里,121.4624698,25.00321262,13:48,,,Y,Y,,Y,Y,Y,,Y,Y,,Y,Y,Y,,Y,Y,,Y,Y,Y
板橋區,220005,A05路線下午,13,重慶路206號,福星里,121.462639,25.002659,13:49,,,Y,Y,,Y,Y,Y,,Y,Y,,Y,Y,Y,,Y,Y,,Y,Y,Y
板橋區,220005,A05路線下午,14,重慶路228號,大豐里,121.462822,25.001684,13:50,,,Y,Y,,Y,Y,Y,,Y,Y,,Y,Y,Y,,Y,Y,,Y,Y,Y
板橋區,220005,A05路線下午,15,重慶路234號,大豐里,121.462873,25.001416,13:50,,,Y,Y,,Y,Y,Y,,Y,Y,,Y,Y,Y,,Y,Y,,Y,Y,Y
板橋區,220005,A05路線下午,16,重慶路252號,大豐里,121.4628441,25.00084845,13:51,,,Y,Y,,Y,Y,Y,,Y,Y,,Y,Y,Y,,Y,Y,,Y,Y,Y
板橋區,220005,A05路線下午,17,重慶路274巷口,大豐里,121.463028,25.000593,13:52,,,Y,Y,,Y,Y,Y,,Y,Y,,Y,Y,Y,,Y,Y,,Y,Y,Y
板橋區,220005,A05路線下午,18,重慶路276號,大豐里,121.463142,24.99976,13:53,,,Y,Y,,Y,Y,Y,,Y,Y,,Y,Y,Y,,Y,Y,,Y,Y,Y
板橋區,220005,A05路線下午,19,重慶路284號,大豐里,121.4635493,24.99922497,13:53,,,Y,Y,,Y,Y,Y,,Y,Y,,Y,Y,Y,,Y,Y,,Y,Y,Y
板橋區,220005,A05路線下午,20,重慶路290號,大豐里,121.4635633,24.99913692,13:54,,,Y,Y,,Y,Y,Y,,Y,Y,,Y,Y,Y,,Y,Y,,Y,Y,Y
板橋區,220005,A05路線下午,21,重慶路298號,大豐里,121.4637809,24.99848161,13:55,,,Y,Y,,Y,Y,Y,,Y,Y,,Y,Y,Y,,Y,Y,,Y,Y,Y
板橋區,220005,A05路線下午,22,重慶路320號,重慶里,121.464127,24.997761,13:56,,,Y,Y,,Y,Y,Y,,Y,Y,,Y,Y,Y,,Y,Y,,Y,Y,Y
板橋區,220005,A05路線下午,23,重慶路340號,重慶里,121.464188,24.99744,13:57,,,Y,Y,,Y,Y,Y,,Y,Y,,Y,Y,Y,,Y,Y,,Y,Y,Y
板橋區,220005,A05路線下午,24,重慶路346巷6號-大樓,重慶里,121.4637289,24.99728667,13:58,,,Y,Y,,Y,Y,Y,,Y,Y,,Y,Y,Y,,Y,Y,,Y,Y,Y
板橋區,220005,A05路線下午,25,重慶路308巷10號-大樓,重慶里,121.463524,24.997696,13:59,,,Y,Y,,Y,Y,Y,,Y,Y,,Y,Y,Y,,Y,Y,,Y,Y,Y
板橋區,220005,A05路線下午,26,重慶路308巷2號,大豐里,121.4635476,24.99813324,14:00,,,Y,Y,,Y,Y,Y,,Y,Y,,Y,Y,Y,,Y,Y,,Y,Y,Y
板橋區,220005,A05路線下午,27,國慶路201號-理想家大樓,重慶里,121.46331,24.996801,14:01,,,Y,Y,,Y,Y,Y,,Y,Y,,Y,Y,Y,,Y,Y,,Y,Y,Y
板橋區,220005,A05路線下午,28,停整點:國慶路199號-大樓,重慶里,121.463284,24.996622,14:01,時間調整,,Y,Y,,Y,Y,Y,,Y,Y,,Y,Y,Y,,Y,Y,,Y,Y,Y
板橋區,220005,A05路線下午,29,國慶路182巷12號-藝術學院,重慶里,121.462891,24.996235,14:06,時間調整,,Y,Y,,Y,Y,Y,,Y,Y,,Y,Y,Y,,Y,Y,,Y,Y,Y
板橋區,220005,A05路線下午,30,國慶路182巷24弄28-32號-重慶光點,重慶里,121.463013,24.996105,14:07,時間調整,,Y,Y,,Y,Y,Y,,Y,Y,,Y,Y,Y,,Y,Y,,Y,Y,Y
板橋區,220005,A05路線下午,31,五權街65巷口,五權里,121.464882,24.993338,14:12,,,Y,Y,,Y,Y,Y,,Y,Y,,Y,Y,Y,,Y,Y,,Y,Y,Y
板橋區,220005,A05路線下午,32,五權街55巷口,五權里,121.464729,24.99358,14:13,,,Y,Y,,Y,Y,Y,,Y,Y,,Y,Y,Y,,Y,Y,,Y,Y,Y
板橋區,220005,A05路線下午,33,五權街45巷口,五權里,121.464584,24.993807,14:14,,,Y,Y,,Y,Y,Y,,Y,Y,,Y,Y,Y,,Y,Y,,Y,Y,Y
板橋區,220005,A05路線下午,34,五權街35巷口,五權里,121.464417,24.994068,14:15,,,Y,Y,,Y,Y,Y,,Y,Y,,Y,Y,Y,,Y,Y,,Y,Y,Y
板橋區,220005,A05路線下午,35,五權街11號,五權里,121.464035,24.994642,14:16,,,Y,Y,,Y,Y,Y,,Y,Y,,Y,Y,Y,,Y,Y,,Y,Y,Y
板橋區,220005,A05路線下午,36,和平路207號,重慶里,121.46434,24.996592,14:17,,,Y,Y,,Y,Y,Y,,Y,Y,,Y,Y,Y,,Y,Y,,Y,Y,Y
板橋區,220005,A05路線下午,37,和平路161巷口-大樓,重慶里,121.463623,24.995914,14:17,,,Y,Y,,Y,Y,Y,,Y,Y,,Y,Y,Y,,Y,Y,,Y,Y,Y
板橋區,220005,A05路線下午,38,和平路85號,和平里,121.461845,24.994726,14:18,,,Y,Y,,Y,Y,Y,,Y,Y,,Y,Y,Y,,Y,Y,,Y,Y,Y
板橋區,220005,A05路線下午,39,和平路63巷口,和平里,121.461258,24.994608,14:19,,,Y,Y,,Y,Y,Y,,Y,Y,,Y,Y,Y,,Y,Y,,Y,Y,Y
板橋區,220005,A05路線下午,40,和平路24巷口,廣福里,121.460297,24.994522,14:20,,,Y,Y,,Y,Y,Y,,Y,Y,,Y,Y,Y,,Y,Y,,Y,Y,Y
板橋區,220005,A05路線下午,41,停整點:和平路25號-7-11超商,重慶里,121.4596711,24.9954132,14:21,,,Y,Y,,Y,Y,Y,,Y,Y,,Y,Y,Y,,Y,Y,,Y,Y,Y
板橋區,220005,A05路線下午,42,國慶路126巷口,重慶里,121.460754,24.995916,14:26,,,Y,Y,,Y,Y,Y,,Y,Y,,Y,Y,Y,,Y,Y,,Y,Y,Y
板橋區,220005,A05路線下午,43,國慶路158巷2號,重慶里,121.461369,24.99598786,14:27,,,Y,Y,,Y,Y,Y,,Y,Y,,Y,Y,Y,,Y,Y,,Y,Y,Y
板橋區,220005,A05路線下午,44,廣和街50號-福容麗池,和平里,121.462257,24.994692,14:29,,,Y,Y,,Y,Y,Y,,Y,Y,,Y,Y,Y,,Y,Y,,Y,Y,Y
板橋區,220005,A05路線下午,45,和平路安樂巷32號,廣福里,121.4614904,24.99375507,14:31,,,Y,Y,,Y,Y,Y,,Y,Y,,Y,Y,Y,,Y,Y,,Y,Y,Y
板橋區,220005,A05路線下午,46,和平路安樂巷36號,廣福里,121.462326,24.993153,14:33,,,Y,Y,,Y,Y,Y,,Y,Y,,Y,Y,Y,,Y,Y,,Y,Y,Y
板橋區,220005,A05路線下午,47,和平路安樂巷54號,廣福里,121.462517,24.99297,14:34,,,Y,Y,,Y,Y,Y,,Y,Y,,Y,Y,Y,,Y,Y,,Y,Y,Y
板橋區,220005,A05路線下午,48,廣和街110號,廣福里,121.462585,24.992447,14:35,,,Y,Y,,Y,Y,Y,,Y,Y,,Y,Y,Y,,Y,Y,,Y,Y,Y
板橋區,220005,A05路線下午,49,廣和街124號-大樓,廣福里,121.46264,24.99188,14:36,,,Y,Y,,Y,Y,Y,,Y,Y,,Y,Y,Y,,Y,Y,,Y,Y,Y
板橋區,220005,A05路線下午,50,和平路安樂巷44弄口,廣福里,121.4626029,24.99218894,14:37,,,Y,Y,,Y,Y,Y,,Y,Y,,Y,Y,Y,,Y,Y,,Y,Y,Y
板橋區,220005,A05路線下午,51,廣權路9號-綠廷居大樓,廣福里,121.4607099,24.99144709,14:39,,,Y,Y,,Y,Y,Y,,Y,Y,,Y,Y,Y,,Y,Y,,Y,Y,Y
板橋區,220005,A05路線下午,52,信義路55號,重慶里,121.456978,24.996571,14:45,,,Y,Y,,Y,Y,Y,,Y,Y,,Y,Y,Y,,Y,Y,,Y,Y,Y
板橋區,220005,A05路線下午,53,信義路25號,重慶里,121.4571319,24.99655403,14:46,,,Y,Y,,Y,Y,Y,,Y,Y,,Y,Y,Y,,Y,Y,,Y,Y,Y
板橋區,220005,A05路線下午,54,四川路二段10號,鄉雲里,121.456234,24.996418,14:47,,,Y,Y,,Y,Y,Y,,Y,Y,,Y,Y,Y,,Y,Y,,Y,Y,Y
板橋區,220005,A05路線下午,55,四川路二段44號,鄉雲里,121.4537104,24.99542447,14:47,,,Y,Y,,Y,Y,Y,,Y,Y,,Y,Y,Y,,Y,Y,,Y,Y,Y
板橋區,220005,A05路線下午,56,德興街16號,華德里,121.4533765,24.99440142,14:49,,,Y,Y,,Y,Y,Y,,Y,Y,,Y,Y,Y,,Y,Y,,Y,Y,Y
板橋區,220005,A05路線下午,57,德興街30號,華德里,121.453411,24.994082,14:50,,,Y,Y,,Y,Y,Y,,Y,Y,,Y,Y,Y,,Y,Y,,Y,Y,Y
板橋區,220005,A05路線下午,58,四川路二段245巷53號之6,華德里,121.452366915344,24.9925622798564,14:52,,,Y,Y,,Y,Y,Y,,Y,Y,,Y,Y,Y,,Y,Y,,Y,Y,Y
板橋區,220005,A05路線下午,59,四川路二段245巷53號之1,華德里,121.452202958912,24.992319180714,14:53,,,Y,Y,,Y,Y,Y,,Y,Y,,Y,Y,Y,,Y,Y,,Y,Y,Y
板橋區,220005,A05路線下午,60,四川路二段245巷66號,華德里,121.4528199,24.99179108,14:54,,,Y,Y,,Y,Y,Y,,Y,Y,,Y,Y,Y,,Y,Y,,Y,Y,Y
板橋區,220005,A05路線下午,61,四川路二段245巷57-71號-豐收季節,華德里,121.4524532,24.992284,14:55,,,Y,Y,,Y,Y,Y,,Y,Y,,Y,Y,Y,,Y,Y,,Y,Y,Y
板橋區,220005,A05路線下午,62,四川路二段245巷53號巷口,華德里,121.4521694,24.992357,14:56,,,Y,Y,,Y,Y,Y,,Y,Y,,Y,Y,Y,,Y,Y,,Y,Y,Y
板橋區,220005,A05路線下午,63,四川路二段245巷37弄口,華德里,121.4516772,24.992701,14:57,,,Y,Y,,Y,Y,Y,,Y,Y,,Y,Y,Y,,Y,Y,,Y,Y,Y
板橋區,220005,A05路線下午,64,四川路二段245巷19弄口,華德里,121.4511018,24.993051,14:58,,,Y,Y,,Y,Y,Y,,Y,Y,,Y,Y,Y,,Y,Y,,Y,Y,Y
板橋區,220005,A05路線下午,65,四川路二段245巷5號,華德里,121.4507729,24.99340237,14:59,,,Y,Y,,Y,Y,Y,,Y,Y,,Y,Y,Y,,Y,Y,,Y,Y,Y
板橋區,220005,A05路線下午,66,四川路二段130巷37號,華東里,121.4495165,24.994542,15:01,,,Y,Y,,Y,Y,Y,,Y,Y,,Y,Y,Y,,Y,Y,,Y,Y,Y
板橋區,220005,A05路線下午,67,四川路二段130巷13號,華東里,121.4497336,24.99391804,15:02,,,Y,Y,,Y,Y,Y,,Y,Y,,Y,Y,Y,,Y,Y,,Y,Y,Y
板橋區,220005,A05路線下午,68,四川路二段130巷1號,華東里,121.4499243,24.99380168,15:03,,,Y,Y,,Y,Y,Y,,Y,Y,,Y,Y,Y,,Y,Y,,Y,Y,Y
板橋區,220009,A09路線,1,太和街4巷7號,廣新里,121.47422,25.019903,13:45,,,Y,Y,,Y,Y,Y,,Y,Y,,Y,Y,Y,,Y,Y,,Y,Y,Y
板橋區,220009,A09路線,2,太和街4巷21號,廣新里,121.474625,25.020172,13:46,,,Y,Y,,Y,Y,Y,,Y,Y,,Y,Y,Y,,Y,Y,,Y,Y,Y
板橋區,220009,A09路線,3,太和街4巷27號,廣新里,121.47477,25.020269,13:47,,,Y,Y,,Y,Y,Y,,Y,Y,,Y,Y,Y,,Y,Y,,Y,Y,Y
板橋區,220009,A09路線,4,富山街109巷63弄34號,廣新里,121.475204,25.02051,13:48,,,Y,Y,,Y,Y,Y,,Y,Y,,Y,Y,Y,,Y,Y,,Y,Y,Y
板橋區,220009,A09路線,5,富山街109巷63弄27號,廣新里,121.475334,25.020561,13:48,,,Y,Y,,Y,Y,Y,,Y,Y,,Y,Y,Y,,Y,Y,,Y,Y,Y
板橋區,220009,A09路線,6,縣民大道三段128巷口,廣新里,121.474442,25.02063,13:50,,,Y,Y,,Y,Y,Y,,Y,Y,,Y,Y,Y,,Y,Y,,Y,Y,Y
板橋區,220009,A09路線,7,富山街109巷91號,廣新里,121.474907,25.020969,13:51,,,Y,Y,,Y,Y,Y,,Y,Y,,Y,Y,Y,,Y,Y,,Y,Y,Y
板橋區,220009,A09路線,8,富山街109巷69號,廣新里,121.475296,25.021219,13:51,,,Y,Y,,Y,Y,Y,,Y,Y,,Y,Y,Y,,Y,Y,,Y,Y,Y
板橋區,220009,A09路線,9,"縣民大道三段 號-建安宮",廣新里,121.475502,25.021534,13:52,,,Y,Y,,Y,Y,Y,,Y,Y,,Y,Y,Y,,Y,Y,,Y,Y,Y
板橋區,220009,A09路線,10,富山街109巷2號巷口,廣新里,121.476105,25.021955,13:53,,,Y,Y,,Y,Y,Y,,Y,Y,,Y,Y,Y,,Y,Y,,Y,Y,Y
板橋區,220009,A09路線,11,永豐街120巷2弄口,廣新里,121.476578,25.020596,13:54,,,Y,Y,,Y,Y,Y,,Y,Y,,Y,Y,Y,,Y,Y,,Y,Y,Y
板橋區,220009,A09路線,12,永豐街120巷2弄6號,廣新里,121.47641,25.020441,13:55,,,Y,Y,,Y,Y,Y,,Y,Y,,Y,Y,Y,,Y,Y,,Y,Y,Y
板橋區,220009,A09路線,13,永豐街120巷2弄10號,廣新里,121.476295,25.020327,13:55,,,Y,Y,,Y,Y,Y,,Y,Y,,Y,Y,Y,,Y,Y,,Y,Y,Y
板橋區,220009,A09路線,14,懷仁街10巷20號,廣新里,121.47533015,25.019706562,13:58,,,Y,Y,,Y,Y,Y,,Y,Y,,Y,Y,Y,,Y,Y,,Y,Y,Y
板橋區,220009,A09路線,15,懷仁街10巷10號,廣新里,121.47566676,25.019884031,13:59,,,Y,Y,,Y,Y,Y,,Y,Y,,Y,Y,Y,,Y,Y,,Y,Y,Y
板橋區,220009,A09路線,16,懷仁街85巷10號,光仁里,121.477638,25.018427,14:00,,,Y,Y,,Y,Y,Y,,Y,Y,,Y,Y,Y,,Y,Y,,Y,Y,Y
板橋區,220009,A09路線,17,停整點：三民路二段21巷13號,富貴里,121.479904,25.018204,14:07,,,Y,Y,,Y,Y,Y,,Y,Y,,Y,Y,Y,,Y,Y,,Y,Y,Y
板橋區,220009,A09路線,18,三民路二段21巷33號,富貴里,121.480415,25.018238,14:09,,,Y,Y,,Y,Y,Y,,Y,Y,,Y,Y,Y,,Y,Y,,Y,Y,Y
板橋區,220009,A09路線,19,三民路二段21巷40號,富貴里,121.480614,25.018251,14:09,,,Y,Y,,Y,Y,Y,,Y,Y,,Y,Y,Y,,Y,Y,,Y,Y,Y
板橋區,220009,A09路線,20,中山路二段318巷23號,埔墘里,121.480553,25.018572,14:12,,,Y,Y,,Y,Y,Y,,Y,Y,,Y,Y,Y,,Y,Y,,Y,Y,Y
板橋區,220009,A09路線,21,中山路二段318巷15號,埔墘里,121.480461,25.018698,14:12,,,Y,Y,,Y,Y,Y,,Y,Y,,Y,Y,Y,,Y,Y,,Y,Y,Y
板橋區,220009,A09路線,22,中山路二段318巷20弄11號,埔墘里,121.480621,25.018782,14:13,,,Y,Y,,Y,Y,Y,,Y,Y,,Y,Y,Y,,Y,Y,,Y,Y,Y
板橋區,220009,A09路線,23,中山路二段318巷20弄39號,埔墘里,121.481133,25.01885,14:14,,,Y,Y,,Y,Y,Y,,Y,Y,,Y,Y,Y,,Y,Y,,Y,Y,Y
板橋區,220009,A09路線,24,中山路二段255巷7號巷口,光仁里,121.477081,25.01799,14:19,,,Y,Y,,Y,Y,Y,,Y,Y,,Y,Y,Y,,Y,Y,,Y,Y,Y
板橋區,220009,A09路線,25,成功路6巷33號,光仁里,121.476402,25.017368,14:21,,,Y,Y,,Y,Y,Y,,Y,Y,,Y,Y,Y,,Y,Y,,Y,Y,Y
板橋區,220009,A09路線,26,成功路6巷23號,光仁里,121.47628,25.017281,14:21,,,Y,Y,,Y,Y,Y,,Y,Y,,Y,Y,Y,,Y,Y,,Y,Y,Y
板橋區,220009,A09路線,27,成功路6巷19號,光仁里,121.476166,25.017216,14:22,,,Y,Y,,Y,Y,Y,,Y,Y,,Y,Y,Y,,Y,Y,,Y,Y,Y
板橋區,220009,A09路線,28,成功路6巷3號,光仁里,121.475754,25.016981,14:23,,,Y,Y,,Y,Y,Y,,Y,Y,,Y,Y,Y,,Y,Y,,Y,Y,Y
板橋區,220009,A09路線,29,中山路一段265巷2弄口,香丘里,121.46859,25.013729,14:28,,,Y,Y,,Y,Y,Y,,Y,Y,,Y,Y,Y,,Y,Y,,Y,Y,Y
板橋區,220009,A09路線,30,中山路一段265巷4弄口,香丘里,121.468391,25.014057,14:28,,,Y,Y,,Y,Y,Y,,Y,Y,,Y,Y,Y,,Y,Y,,Y,Y,Y
板橋區,220009,A09路線,31,中山路一段265巷36弄口,香丘里,121.469131,25.015186,14:29,,,Y,Y,,Y,Y,Y,,Y,Y,,Y,Y,Y,,Y,Y,,Y,Y,Y
板橋區,220009,A09路線,32,停整點：中山路一段265巷16號,香丘里,121.468834,25.014748,14:30,,,Y,Y,,Y,Y,Y,,Y,Y,,Y,Y,Y,,Y,Y,,Y,Y,Y
板橋區,220009,A09路線,33,漢生東路113巷6弄口,香丘里,121.46833,25.015547,14:34,,,Y,Y,,Y,Y,Y,,Y,Y,,Y,Y,Y,,Y,Y,,Y,Y,Y
板橋區,220009,A09路線,34,漢生東路113巷25號,香丘里,121.467834,25.015423,14:35,,,Y,Y,,Y,Y,Y,,Y,Y,,Y,Y,Y,,Y,Y,,Y,Y,Y
板橋區,220009,A09路線,35,板新路200巷18號,香丘里,121.468857,25.01634,14:40,,,Y,Y,,Y,Y,Y,,Y,Y,,Y,Y,Y,,Y,Y,,Y,Y,Y
板橋區,220009,A09路線,36,中山路一段283巷3弄口,香丘里,121.470039,25.01474,14:44,,,Y,Y,,Y,Y,Y,,Y,Y,,Y,Y,Y,,Y,Y,,Y,Y,Y
板橋區,220009,A09路線,37,中山路一段283巷2弄2號,香丘里,121.470207,25.014511,14:44,,,Y,Y,,Y,Y,Y,,Y,Y,,Y,Y,Y,,Y,Y,,Y,Y,Y
板橋區,220009,A09路線,38,中山路一段283巷2弄19號,香丘里,121.470543,25.015041,14:45,,,Y,Y,,Y,Y,Y,,Y,Y,,Y,Y,Y,,Y,Y,,Y,Y,Y
板橋區,220009,A09路線,39,觀光街1巷1號,西安里,121.4719784,25.01545311,14:48,,,Y,Y,,Y,Y,Y,,Y,Y,,Y,Y,Y,,Y,Y,,Y,Y,Y
板橋區,220009,A09路線,40,觀光街1巷7號,西安里,121.47187,25.015387,14:49,,,Y,Y,,Y,Y,Y,,Y,Y,,Y,Y,Y,,Y,Y,,Y,Y,Y
板橋區,220009,A09路線,41,觀光街1巷16號,西安里,121.471725,25.015314,14:50,,,Y,Y,,Y,Y,Y,,Y,Y,,Y,Y,Y,,Y,Y,,Y,Y,Y
板橋區,220009,A09路線,42,觀光街3巷13號,西安里,121.471398,25.015498,14:51,,,Y,Y,,Y,Y,Y,,Y,Y,,Y,Y,Y,,Y,Y,,Y,Y,Y
板橋區,220009,A09路線,43,觀光街3巷3號,西安里,121.471734,25.015681,14:51,,,Y,Y,,Y,Y,Y,,Y,Y,,Y,Y,Y,,Y,Y,,Y,Y,Y
板橋區,220009,A09路線,44,觀光街33巷3號,西安里,121.471262,25.016051,14:52,,,Y,Y,,Y,Y,Y,,Y,Y,,Y,Y,Y,,Y,Y,,Y,Y,Y
板橋區,220009,A09路線,45,觀光街33巷25號,西安里,121.471039,25.015776,14:52,,,Y,Y,,Y,Y,Y,,Y,Y,,Y,Y,Y,,Y,Y,,Y,Y,Y
板橋區,220009,A09路線,46,觀光街57巷22號,西安里,121.470188,25.016152,14:54,,,Y,Y,,Y,Y,Y,,Y,Y,,Y,Y,Y,,Y,Y,,Y,Y,Y
板橋區,220009,A09路線,47,觀光街57巷口,西安里,121.470279,25.016273,14:54,,,Y,Y,,Y,Y,Y,,Y,Y,,Y,Y,Y,,Y,Y,,Y,Y,Y
板橋區,220009,A09路線,48,觀光街69巷口,西安里,121.469948,25.016659,14:55,,,Y,Y,,Y,Y,Y,,Y,Y,,Y,Y,Y,,Y,Y,,Y,Y,Y
板橋區,220009,A09路線,49,觀光街79巷口,西安里,121.469482,25.016859,14:56,,,Y,Y,,Y,Y,Y,,Y,Y,,Y,Y,Y,,Y,Y,,Y,Y,Y
板橋區,220009,A09路線,50,縣民大道二段200巷1號,玉光里,121.469693,25.017228,14:57,,,Y,Y,,Y,Y,Y,,Y,Y,,Y,Y,Y,,Y,Y,,Y,Y,Y
板橋區,220009,A09路線,51,縣民大道二段200巷17號,玉光里,121.47023,25.01746,14:59,,,Y,Y,,Y,Y,Y,,Y,Y,,Y,Y,Y,,Y,Y,,Y,Y,Y
板橋區,220009,A09路線,52,縣民大道二段200巷33號,玉光里,121.47067,25.017888,14:59,,,Y,Y,,Y,Y,Y,,Y,Y,,Y,Y,Y,,Y,Y,,Y,Y,Y
板橋區,220009,A09路線,53,觀光街4巷2弄口,西安里,121.472298,25.015802,15:01,,,Y,Y,,Y,Y,Y,,Y,Y,,Y,Y,Y,,Y,Y,,Y,Y,Y
板橋區,220009,A09路線,54,四川路一段274巷1-3號,鄉雲里,121.458633,25.001078,15:13,,,Y,Y,,Y,Y,Y,,Y,Y,,Y,Y,Y,,Y,Y,,Y,Y,Y
板橋區,220009,A09路線,55,四川路一段274巷1弄2號,鄉雲里,121.458183,25.001299,15:13,,,Y,Y,,Y,Y,Y,,Y,Y,,Y,Y,Y,,Y,Y,,Y,Y,Y
板橋區,220009,A09路線,56,四川路一段274巷3-4號-里辦公室,鄉雲里,121.45797,25.001408,15:14,,,Y,Y,,Y,Y,Y,,Y,Y,,Y,Y,Y,,Y,Y,,Y,Y,Y
板橋區,220009,A09路線,57,四川路一段274巷口,鄉雲里,121.45768605257,25.0011616577451,15:14,經緯度修正,,Y,Y,,Y,Y,Y,,Y,Y,,Y,Y,Y,,Y,Y,,Y,Y,Y
板橋區,220009,A09路線,58,四川路一段286巷1號,鄉雲里,121.458101668647,25.0009333737958,15:15,經緯度修正,,Y,Y,,Y,Y,Y,,Y,Y,,Y,Y,Y,,Y,Y,,Y,Y,Y
板橋區,220009,A09路線,59,四川路一段286巷口(倒車進入),鄉雲里,121.458599431877,25.0007843901616,15:15,經緯度修正,,Y,Y,,Y,Y,Y,,Y,Y,,Y,Y,Y,,Y,Y,,Y,Y,Y
板橋區,220010,A10路線下午,1,中山路二段24號,民生里,121.47251,25.01513,13:45,,,Y,Y,,Y,Y,Y,,Y,Y,,Y,Y,Y,,Y,Y,,Y,Y,Y
板橋區,220010,A10路線下午,2,中山路二段34號,民生里,121.47279,25.01527,13:46,,,Y,Y,,Y,Y,Y,,Y,Y,,Y,Y,Y,,Y,Y,,Y,Y,Y
板橋區,220010,A10路線下午,3,中山路二段40巷16號,民生里,121.47337,25.01481,13:48,,,Y,Y,,Y,Y,Y,,Y,Y,,Y,Y,Y,,Y,Y,,Y,Y,Y
板橋區,220010,A10路線下午,4,中山路二段40巷27號,民生里,121.4736,25.01454,13:49,,,Y,Y,,Y,Y,Y,,Y,Y,,Y,Y,Y,,Y,Y,,Y,Y,Y
板橋區,220010,A10路線下午,5,中山路二段40巷34號,民生里,121.4739,25.014215,13:50,,,Y,Y,,Y,Y,Y,,Y,Y,,Y,Y,Y,,Y,Y,,Y,Y,Y
板橋區,220010,A10路線下午,6,中山路二段60巷1弄口,東丘里,121.474212469905,25.0152202687266,13:51,,,Y,Y,,Y,Y,Y,,Y,Y,,Y,Y,Y,,Y,Y,,Y,Y,Y
板橋區,220010,A10路線下午,7,中山路二段60巷1弄5號,東丘里,121.474419,25.015326,13:51,,,Y,Y,,Y,Y,Y,,Y,Y,,Y,Y,Y,,Y,Y,,Y,Y,Y
板橋區,220010,A10路線下午,8,中山路二段60巷1弄15號,東丘里,121.474762,25.015528,13:52,,,Y,Y,,Y,Y,Y,,Y,Y,,Y,Y,Y,,Y,Y,,Y,Y,Y
板橋區,220010,A10路線下午,9,中山路二段60巷1弄27號,東丘里,121.475295235616,25.0158378215223,13:53,,,Y,Y,,Y,Y,Y,,Y,Y,,Y,Y,Y,,Y,Y,,Y,Y,Y
板橋區,220010,A10路線下午,10,三民路二段245巷8號,福壽里,121.479568,25.012533,13:58,,,Y,Y,,Y,Y,Y,,Y,Y,,Y,Y,Y,,Y,Y,,Y,Y,Y
板橋區,220010,A10路線下午,11,三民路二段245巷26號,福壽里,121.480438,25.012545,13:59,,,Y,Y,,Y,Y,Y,,Y,Y,,Y,Y,Y,,Y,Y,,Y,Y,Y
板橋區,220010,A10路線下午,12,三民路二段245巷36號,福壽里,121.480682,25.012554,13:59,,,Y,Y,,Y,Y,Y,,Y,Y,,Y,Y,Y,,Y,Y,,Y,Y,Y
板橋區,220010,A10路線下午,13,三民路二段245巷4弄口,福壽里,121.48095,25.01219,14:00,,,Y,Y,,Y,Y,Y,,Y,Y,,Y,Y,Y,,Y,Y,,Y,Y,Y
板橋區,220010,A10路線下午,14,三民路二段245巷2弄口,福壽里,121.48093,25.01201,14:01,,,Y,Y,,Y,Y,Y,,Y,Y,,Y,Y,Y,,Y,Y,,Y,Y,Y
板橋區,220010,A10路線下午,15,三民路二段245巷2弄24號,福壽里,121.48092,25.01194,14:02,,,Y,Y,,Y,Y,Y,,Y,Y,,Y,Y,Y,,Y,Y,,Y,Y,Y
板橋區,220010,A10路線下午,16,三民路二段245巷62號-國儷幼兒園,福壽里,121.482109,25.01231,14:03,,,Y,Y,,Y,Y,Y,,Y,Y,,Y,Y,Y,,Y,Y,,Y,Y,Y
板橋區,220010,A10路線下午,17,三民路二段245巷89號,福壽里,121.481651,25.012587,14:04,,,Y,Y,,Y,Y,Y,,Y,Y,,Y,Y,Y,,Y,Y,,Y,Y,Y
板橋區,220010,A10路線下午,18,三民路二段245巷81號,福壽里,121.481369,25.012606,14:05,,,Y,Y,,Y,Y,Y,,Y,Y,,Y,Y,Y,,Y,Y,,Y,Y,Y
板橋區,220010,A10路線下午,19,三民路二段245巷69弄1號,福壽里,121.481071,25.012854,14:05,,,Y,Y,,Y,Y,Y,,Y,Y,,Y,Y,Y,,Y,Y,,Y,Y,Y
板橋區,220010,A10路線下午,20,三民路二段245巷69弄19號,福壽里,121.48106,25.01336,14:07,,,Y,Y,,Y,Y,Y,,Y,Y,,Y,Y,Y,,Y,Y,,Y,Y,Y
板橋區,220010,A10路線下午,21,三民路二段居仁巷2弄口,福壽里,121.47935,25.01329,14:09,,,Y,Y,,Y,Y,Y,,Y,Y,,Y,Y,Y,,Y,Y,,Y,Y,Y
板橋區,220010,A10路線下午,22,三民路二段居仁巷2弄22號,福壽里,121.47973,25.01291,14:10,,,Y,Y,,Y,Y,Y,,Y,Y,,Y,Y,Y,,Y,Y,,Y,Y,Y
板橋區,220010,A10路線下午,23,三民路二段居仁巷2弄25號巷口,福壽里,121.47995,25.01299,14:12,,,Y,Y,,Y,Y,Y,,Y,Y,,Y,Y,Y,,Y,Y,,Y,Y,Y
板橋區,220010,A10路線下午,24,三民路二段居仁巷26號,福壽里,121.47996,25.01326,14:15,,,Y,Y,,Y,Y,Y,,Y,Y,,Y,Y,Y,,Y,Y,,Y,Y,Y
板橋區,220010,A10路線下午,25,三民路二段居仁巷1弄28號,福壽里,121.48015,25.01361,14:15,,,Y,Y,,Y,Y,Y,,Y,Y,,Y,Y,Y,,Y,Y,,Y,Y,Y
板橋區,220010,A10路線下午,26,三民路二段居仁巷1弄40號,福壽里,121.48059,25.01364,14:16,,,Y,Y,,Y,Y,Y,,Y,Y,,Y,Y,Y,,Y,Y,,Y,Y,Y
板橋區,220010,A10路線下午,27,三民路二段居仁巷1弄46號,福壽里,121.48085,25.01365,14:17,,,Y,Y,,Y,Y,Y,,Y,Y,,Y,Y,Y,,Y,Y,,Y,Y,Y
板橋區,220010,A10路線下午,28,三民路二段153巷36弄口,居仁里,121.48114,25.01402,14:17,,,Y,Y,,Y,Y,Y,,Y,Y,,Y,Y,Y,,Y,Y,,Y,Y,Y
板橋區,220010,A10路線下午,29,三民路二段153巷32弄口,居仁里,121.48108,25.01427,14:18,,,Y,Y,,Y,Y,Y,,Y,Y,,Y,Y,Y,,Y,Y,,Y,Y,Y
板橋區,220010,A10路線下午,30,三民路二段153巷7弄口,長壽里,121.480606,25.015022,14:22,,,Y,Y,,Y,Y,Y,,Y,Y,,Y,Y,Y,,Y,Y,,Y,Y,Y
板橋區,220010,A10路線下午,31,三民路二段153巷5弄口,長壽里,121.480095,25.014996,14:23,,,Y,Y,,Y,Y,Y,,Y,Y,,Y,Y,Y,,Y,Y,,Y,Y,Y
板橋區,220010,A10路線下午,32,三民路二段153巷1號口,長壽里,121.479301,25.014936,14:24,,,Y,Y,,Y,Y,Y,,Y,Y,,Y,Y,Y,,Y,Y,,Y,Y,Y
板橋區,220010,A10路線下午,33,三民路二段153巷2弄2號,長壽里,121.47957,25.01489,14:24,,,Y,Y,,Y,Y,Y,,Y,Y,,Y,Y,Y,,Y,Y,,Y,Y,Y
板橋區,220010,A10路線下午,34,三民路二段153巷2弄8號,長壽里,121.47957,25.01466,14:25,,,Y,Y,,Y,Y,Y,,Y,Y,,Y,Y,Y,,Y,Y,,Y,Y,Y
板橋區,220010,A10路線下午,35,三民路二段181巷4號(原永豐名人社區不倒車進入),長壽里,121.4794613,25.01433028,14:26,,,Y,Y,,Y,Y,Y,,Y,Y,,Y,Y,Y,,Y,Y,,Y,Y,Y
板橋區,220010,A10路線下午,36,三民路二段123巷5號,長壽里,121.479706,25.015608,14:30,,,Y,Y,,Y,Y,Y,,Y,Y,,Y,Y,Y,,Y,Y,,Y,Y,Y
板橋區,220010,A10路線下午,37,三民路二段123巷15號,長壽里,121.480171,25.01561,14:31,,,Y,Y,,Y,Y,Y,,Y,Y,,Y,Y,Y,,Y,Y,,Y,Y,Y
板橋區,220010,A10路線下午,38,三民路二段123巷29號,長壽里,121.48053,25.015615,14:32,,,Y,Y,,Y,Y,Y,,Y,Y,,Y,Y,Y,,Y,Y,,Y,Y,Y
板橋區,220010,A10路線下午,39,三民路二段109巷26號,長壽里,121.48059,25.01598,14:33,,,Y,Y,,Y,Y,Y,,Y,Y,,Y,Y,Y,,Y,Y,,Y,Y,Y
板橋區,220010,A10路線下午,40,三民路二段81巷26號,長壽里,121.480522,25.016705,14:34,,,Y,Y,,Y,Y,Y,,Y,Y,,Y,Y,Y,,Y,Y,,Y,Y,Y
板橋區,220010,A10路線下午,41,三民路二段81巷6號,長壽里,121.47995,25.016691,14:36,,,Y,Y,,Y,Y,Y,,Y,Y,,Y,Y,Y,,Y,Y,,Y,Y,Y
板橋區,220010,A10路線下午,42,三民路二段29巷7號,富貴里,121.481606,25.018063,14:38,,,Y,Y,,Y,Y,Y,,Y,Y,,Y,Y,Y,,Y,Y,,Y,Y,Y
板橋區,220010,A10路線下午,43,三民路二段29巷15號,富貴里,121.482018,25.018108,14:40,,,Y,Y,,Y,Y,Y,,Y,Y,,Y,Y,Y,,Y,Y,,Y,Y,Y
板橋區,220010,A10路線下午,44,光復街52巷1號,富貴里,121.482128,25.017954,14:41,,,Y,Y,,Y,Y,Y,,Y,Y,,Y,Y,Y,,Y,Y,,Y,Y,Y
板橋區,220010,A10路線下午,45,停整點：三民路二段29巷31弄7號,富貴里,121.481667,25.017778,14:43,,,Y,Y,,Y,Y,Y,,Y,Y,,Y,Y,Y,,Y,Y,,Y,Y,Y
板橋區,220010,A10路線下午,46,三民路二段81巷27弄28號,富貴里,121.48125,25.01769,14:46,,,Y,Y,,Y,Y,Y,,Y,Y,,Y,Y,Y,,Y,Y,,Y,Y,Y
板橋區,220010,A10路線下午,47,中山路二段416巷38弄25號,埔墘里,121.481964,25.019583,14:47,,,Y,Y,,Y,Y,Y,,Y,Y,,Y,Y,Y,,Y,Y,,Y,Y,Y
板橋區,220010,A10路線下午,48,中山路二段416巷54弄10號,埔墘里,121.482277,25.019318,14:48,,,Y,Y,,Y,Y,Y,,Y,Y,,Y,Y,Y,,Y,Y,,Y,Y,Y
板橋區,220010,A10路線下午,49,中山路二段416巷56號口,埔墘里,121.483025,25.019217,14:49,,,Y,Y,,Y,Y,Y,,Y,Y,,Y,Y,Y,,Y,Y,,Y,Y,Y
板橋區,220010,A10路線下午,50,中山路二段416巷57弄2號,埔墘里,121.483017,25.018972,14:50,,,Y,Y,,Y,Y,Y,,Y,Y,,Y,Y,Y,,Y,Y,,Y,Y,Y
板橋區,220010,A10路線下午,51,光復街33巷36號,埔墘里,121.4825883,25.01889911,14:52,,,Y,Y,,Y,Y,Y,,Y,Y,,Y,Y,Y,,Y,Y,,Y,Y,Y
板橋區,220010,A10路線下午,52,光復街33巷13弄口,埔墘里,121.4818884,25.01895071,14:53,,,Y,Y,,Y,Y,Y,,Y,Y,,Y,Y,Y,,Y,Y,,Y,Y,Y
板橋區,220010,A10路線下午,53,光復街33巷口,埔墘里,121.4815462,25.01891454,14:53,,,Y,Y,,Y,Y,Y,,Y,Y,,Y,Y,Y,,Y,Y,,Y,Y,Y
板橋區,220010,A10路線下午,54,光復街167-177號(光復新座),光復里,121.485302,25.020518,14:54,,,Y,Y,,Y,Y,Y,,Y,Y,,Y,Y,Y,,Y,Y,,Y,Y,Y
板橋區,220010,A10路線下午,55,光榮巷30弄2號,光復里,121.484741,25.020644,14:55,,,Y,Y,,Y,Y,Y,,Y,Y,,Y,Y,Y,,Y,Y,,Y,Y,Y
板橋區,220010,A10路線下午,56,光榮巷30弄20號,光復里,121.484336,25.020434,14:56,,,Y,Y,,Y,Y,Y,,Y,Y,,Y,Y,Y,,Y,Y,,Y,Y,Y
板橋區,220010,A10路線下午,57,中山路二段412巷21弄5號(雅舍大樓),光復里,121.48378,25.020233,14:57,,,Y,Y,,Y,Y,Y,,Y,Y,,Y,Y,Y,,Y,Y,,Y,Y,Y
板橋區,220010,A10路線下午,58,光復街99號(觀音堂),光復里,121.48391,25.019094,14:58,,,Y,Y,,Y,Y,Y,,Y,Y,,Y,Y,Y,,Y,Y,,Y,Y,Y
板橋區,220010,A10路線下午,59,中山路二段416巷66弄2號,埔墘里,121.482793,25.01867,14:59,,,Y,Y,,Y,Y,Y,,Y,Y,,Y,Y,Y,,Y,Y,,Y,Y,Y
板橋區,220010,A10路線下午,60,萬安街85巷1弄12號,振義里,121.48437928836,25.0250690502846,15:03,站序修正,,Y,Y,,Y,Y,Y,,Y,Y,,Y,Y,Y,,Y,Y,,Y,Y,Y
板橋區,220010,A10路線下午,61,萬安街20巷10弄16號,振義里,121.484933743551,25.0236235638046,15:05,站序修正,,Y,Y,,Y,Y,Y,,Y,Y,,Y,Y,Y,,Y,Y,,Y,Y,Y
板橋區,220010,A10路線下午,62,萬安街20巷8弄18號,振義里,121.485010725777,25.0234207361439,15:06,站序修正,,Y,Y,,Y,Y,Y,,Y,Y,,Y,Y,Y,,Y,Y,,Y,Y,Y
板橋區,220010,A10路線下午,63,萬安街20巷6弄15號,振義里,121.485092938657,25.0231877508045,15:06,站序修正,,Y,Y,,Y,Y,Y,,Y,Y,,Y,Y,Y,,Y,Y,,Y,Y,Y
板橋區,220010,A10路線下午,64,萬安街20巷4弄16號,振義里,121.485176961394,25.0229570579503,15:06,站序修正,,Y,Y,,Y,Y,Y,,Y,Y,,Y,Y,Y,,Y,Y,,Y,Y,Y
板橋區,220010,A10路線下午,65,中山路二段617巷1弄2號,振義里,121.485435,25.022306,15:09,站序修正,,Y,Y,,Y,Y,Y,,Y,Y,,Y,Y,Y,,Y,Y,,Y,Y,Y
板橋區,220011,A11路線(一、四)下午,1,民生路一段127號,民生里,121.473791256448,25.0148568806162,13:45,,,Y,,,Y,,,,Y,,,Y,,,,Y,,,Y,,
板橋區,220011,A11路線(一、四)下午,2,民生路一段113號,民生里,121.474075,25.014509,13:45,,,Y,,,Y,,,,Y,,,Y,,,,Y,,,Y,,
板橋區,220011,A11路線(一、四)下午,3,民生路一段105號,民生里,121.474197,25.014387,13:46,,,Y,,,Y,,,,Y,,,Y,,,,Y,,,Y,,
板橋區,220011,A11路線(一、四)下午,4,民生路一段83號,民生里,121.474998,25.013502,13:46,,,Y,,,Y,,,,Y,,,Y,,,,Y,,,Y,,
板橋區,220011,A11路線(一、四)下午,5,民生路一段53號-7-11超商,民生里,121.475578,25.012943,13:47,,,Y,,,Y,,,,Y,,,Y,,,,Y,,,Y,,
板橋區,220011,A11路線(一、四)下午,6,民生路一段38號,東丘里,121.474436387154,25.0144732255481,13:48,,,Y,,,Y,,,,Y,,,Y,,,,Y,,,Y,,
板橋區,220011,A11路線(一、四)下午,7,民生路一段70號,東丘里,121.473801,25.015265,13:49,,,Y,,,Y,,,,Y,,,Y,,,,Y,,,Y,,
板橋區,220011,A11路線(一、四)下午,8,中山路二段62號,東丘里,121.47377,25.015726,13:51,,,Y,,,Y,,,,Y,,,Y,,,,Y,,,Y,,
板橋區,220011,A11路線(一、四)下午,9,中山路二段82號,東丘里,121.474642,25.016121,13:52,,,Y,,,Y,,,,Y,,,Y,,,,Y,,,Y,,
板橋區,220011,A11路線(一、四)下午,10,中山路二段84-2號,東丘里,121.474770790755,25.0161772554301,13:53,,,Y,,,Y,,,,Y,,,Y,,,,Y,,,Y,,
板橋區,220011,A11路線(一、四)下午,11,中山路二段102巷口,東丘里,121.475639,25.016569,13:53,,,Y,,,Y,,,,Y,,,Y,,,,Y,,,Y,,
板橋區,220011,A11路線(一、四)下午,12,中山路二段116號-大樓,東丘里,121.47599,25.016739,13:54,,,Y,,,Y,,,,Y,,,Y,,,,Y,,,Y,,
板橋區,220011,A11路線(一、四)下午,13,中山路二段140號,東丘里,121.476448,25.016945,13:55,,,Y,,,Y,,,,Y,,,Y,,,,Y,,,Y,,
板橋區,220011,A11路線(一、四)下午,14,中山路二段156號,東丘里,121.476784,25.017117,13:55,,,Y,,,Y,,,,Y,,,Y,,,,Y,,,Y,,
板橋區,220011,A11路線(一、四)下午,15,中山路二段168號,東丘里,121.477058,25.017263,13:56,,,Y,,,Y,,,,Y,,,Y,,,,Y,,,Y,,
板橋區,220011,A11路線(一、四)下午,16,中山路二段194號,九如里,121.477531,25.017559,13:57,,,Y,,,Y,,,,Y,,,Y,,,,Y,,,Y,,
板橋區,220011,A11路線(一、四)下午,17,中山路二段224號,九如里,121.478096,25.017941,13:58,,,Y,,,Y,,,,Y,,,Y,,,,Y,,,Y,,
板橋區,220011,A11路線(一、四)下午,18,中山路二段252號,九如里,121.478662616654,25.0182958599566,13:59,,,Y,,,Y,,,,Y,,,Y,,,,Y,,,Y,,
板橋區,220011,A11路線(一、四)下午,19,三民路二段28號-大樓,九如里,121.479188991401,25.0181100138351,14:01,,,Y,,,Y,,,,Y,,,Y,,,,Y,,,Y,,
板橋區,220011,A11路線(一、四)下午,20,三民路二段38號,九如里,121.479199720237,25.0176714861672,14:02,,,Y,,,Y,,,,Y,,,Y,,,,Y,,,Y,,
板橋區,220011,A11路線(一、四)下午,21,三民路二段70巷口,九如里,121.479211743551,25.0173184724064,14:03,,,Y,,,Y,,,,Y,,,Y,,,,Y,,,Y,,
板橋區,220011,A11路線(一、四)下午,22,三民路二段110號,九如里,121.479199049685,25.0166487184119,14:04,,,Y,,,Y,,,,Y,,,Y,,,,Y,,,Y,,
板橋區,220011,A11路線(一、四)下午,23,三民路二段138巷口,九如里,121.479156355819,25.0160126500404,14:06,,,Y,,,Y,,,,Y,,,Y,,,,Y,,,Y,,
板橋區,220011,A11路線(一、四)下午,24,三民路二段188號-精點大樓.世華銀行,福壽里,121.479028,25.0149075,14:10,,,Y,,,Y,,,,Y,,,Y,,,,Y,,,Y,,
板橋區,220011,A11路線(一、四)下午,25,停整點:三民路二段正泰4巷口,福壽里,121.478977687748,25.0137257091072,14:16,,,Y,,,Y,,,,Y,,,Y,,,,Y,,,Y,,
板橋區,220011,A11路線(一、四)下午,26,三民路二段正泰7巷口-第一新城F社區,福壽里,121.478888,25.0127579,14:21,,,Y,,,Y,,,,Y,,,Y,,,,Y,,,Y,,
板橋區,220011,A11路線(一、四)下午,27,三民路二段204號社區,福壽里,121.478753,25.012243,14:24,,,Y,,,Y,,,,Y,,,Y,,,,Y,,,Y,,
板橋區,220011,A11路線(一、四)下午,28,三民路二段220巷口,福壽里,121.478821,25.011639,14:28,,,Y,,,Y,,,,Y,,,Y,,,,Y,,,Y,,
板橋區,220011,A11路線(一、四)下午,29,三民路二段243號,福壽里,121.478989314732,25.0124999032572,14:30,,,Y,,,Y,,,,Y,,,Y,,,,Y,,,Y,,
板橋區,220011,A11路線(一、四)下午,30,三民路二段237號,福壽里,121.479002725777,25.0127766951609,14:31,,,Y,,,Y,,,,Y,,,Y,,,,Y,,,Y,,
